{
 "timestamp": "2026-07-20T10:33-04:00",
 "estaciones": {
  "ext:100": {
   "id": "100",
   "nombre": "Aeródromo La Florida",
   "comuna": "La Serena",
   "region": "Coquimbo",
   "lat": -29.9175,
   "lon": -71.20111,
   "institucion": "DMC",
   "estado": "en línea",
   "vigencia": "hoy",
   "t_min": 12.8,
   "t_max": 15.0,
   "hr": 90.6,
   "lluvia_hoy": 11.8,
   "lluvia_ayer": 68.0,
   "viento": 13.0,
   "viento_max": 47.9,
   "dir_viento": 227.0
  },
  "ext:101": {
   "id": "101",
   "nombre": "Escuela Agrícola",
   "comuna": "Ovalle",
   "region": "Coquimbo",
   "lat": -30.58,
   "lon": -71.18667,
   "institucion": "DMC",
   "estado": "en línea",
   "vigencia": "hoy",
   "t_min": 13.0,
   "t_max": 14.2,
   "hr": 87.0,
   "lluvia_hoy": 1.7,
   "lluvia_ayer": 32.7,
   "viento": 9.8,
   "viento_max": 33.5,
   "dir_viento": 126.0
  },
  "inia:51": {
   "id": "51",
   "nombre": "La Cruz",
   "comuna": "La Cruz",
   "region": "Valparaíso",
   "lat": -32.822,
   "lon": -71.2304,
   "institucion": "INIA",
   "estado": "en línea",
   "vigencia": "hoy",
   "t_min": 9.6,
   "t_max": 9.9,
   "hr": 95.1,
   "lluvia_hoy": 42.8,
   "lluvia_ayer": 1.2,
   "viento": 0.1,
   "viento_max": 5.9,
   "dir_viento": 46.0
  },
  "ext:1029": {
   "id": "1029",
   "nombre": "Liceo Agrícola Quillota",
   "comuna": "Quillota",
   "region": "Valparaíso",
   "lat": -32.90722,
   "lon": -71.27139,
   "institucion": "DMC",
   "estado": "en línea",
   "vigencia": "hoy",
   "t_min": 9.9,
   "t_max": 10.3,
   "hr": 96.8,
   "lluvia_hoy": 25.4,
   "lluvia_ayer": 0.6,
   "viento": 2.2,
   "viento_max": 5.4,
   "dir_viento": 192.0
  },
  "inia:314": {
   "id": "314",
   "nombre": "Chorrillos",
   "comuna": "Lampa",
   "region": "Metropolitana",
   "lat": -33.34368,
   "lon": -70.8185,
   "institucion": "INIA",
   "estado": "en línea",
   "vigencia": "hoy",
   "t_min": 7.5,
   "t_max": 8.5,
   "hr": 94.6,
   "lluvia_hoy": 20.8,
   "lluvia_ayer": 0.0,
   "viento": 2.6,
   "viento_max": 10.7,
   "dir_viento": 130.0
  },
  "ext:150": {
   "id": "150",
   "nombre": "Aeródromo Curacaví",
   "comuna": "Curacaví",
   "region": "Metropolitana",
   "lat": -33.41111,
   "lon": -71.16778,
   "institucion": "DMC",
   "estado": "en línea",
   "vigencia": "hoy",
   "t_min": 9.9,
   "t_max": 10.2,
   "hr": 99.4,
   "lluvia_hoy": 15.1,
   "lluvia_ayer": 0.3,
   "viento": 2.0,
   "viento_max": 10.8,
   "dir_viento": 200.0
  },
  "ext:141": {
   "id": "141",
   "nombre": "Chorombo Hacienda",
   "comuna": "María Pinto",
   "region": "Metropolitana",
   "lat": -33.52944,
   "lon": -71.22917,
   "institucion": "DMC",
   "estado": "en línea",
   "vigencia": "hoy",
   "t_min": 9.8,
   "t_max": 10.0,
   "hr": 98.6,
   "lluvia_hoy": null,
   "lluvia_ayer": null,
   "viento": 1.2,
   "viento_max": 6.5,
   "dir_viento": 162.0
  },
  "ext:118": {
   "id": "118",
   "nombre": "Talagante",
   "comuna": "Talagante",
   "region": "Metropolitana",
   "lat": -33.67028,
   "lon": -70.84944,
   "institucion": "DMC",
   "estado": "en línea",
   "vigencia": "hoy",
   "t_min": 8.1,
   "t_max": 8.4,
   "hr": 100.0,
   "lluvia_hoy": 11.2,
   "lluvia_ayer": 0.0,
   "viento": 1.9,
   "viento_max": 6.8,
   "dir_viento": 101.0
  },
  "inia:6": {
   "id": "6",
   "nombre": "Los Tilos",
   "comuna": "Buin",
   "region": "Metropolitana",
   "lat": -33.70726005,
   "lon": -70.70165517,
   "institucion": "INIA",
   "estado": "en línea",
   "vigencia": "hoy",
   "t_min": 7.3,
   "t_max": 8.5,
   "hr": 90.6,
   "lluvia_hoy": 14.5,
   "lluvia_ayer": 0.1,
   "viento": 0.7,
   "viento_max": 15.3,
   "dir_viento": 49.0
  },
  "inia:100": {
   "id": "100",
   "nombre": "San Antonio de Naltahua",
   "comuna": "Isla de Maipo",
   "region": "Metropolitana",
   "lat": -33.732181,
   "lon": -71.039443,
   "institucion": "INIA",
   "estado": "en línea",
   "vigencia": "hoy",
   "t_min": 8.9,
   "t_max": 9.4,
   "hr": 100.0,
   "lluvia_hoy": 17.1,
   "lluvia_ayer": 0.1,
   "viento": 0.1,
   "viento_max": 7.5,
   "dir_viento": 42.0
  },
  "inia:321": {
   "id": "321",
   "nombre": "Valdivia de Paine",
   "comuna": "Buin",
   "region": "Metropolitana",
   "lat": -33.7986592,
   "lon": -70.8413394,
   "institucion": "INIA",
   "estado": "en línea",
   "vigencia": "hoy",
   "t_min": 7.5,
   "t_max": 8.8,
   "hr": 95.4,
   "lluvia_hoy": 16.3,
   "lluvia_ayer": 0.1,
   "viento": 0.0,
   "viento_max": 4.5,
   "dir_viento": 12.0
  },
  "inia:210": {
   "id": "210",
   "nombre": "El Asiento",
   "comuna": "Alhué",
   "region": "Metropolitana",
   "lat": -34.029282,
   "lon": -70.995098,
   "institucion": "INIA",
   "estado": "en línea",
   "vigencia": "hoy",
   "t_min": 7.6,
   "t_max": 8.4,
   "hr": 95.6,
   "lluvia_hoy": 10.9,
   "lluvia_ayer": 0.1,
   "viento": 0.0,
   "viento_max": 6.1,
   "dir_viento": 4.0
  },
  "inia:303": {
   "id": "303",
   "nombre": "Rayentué",
   "comuna": "Rengo",
   "region": "O'Higgins",
   "lat": -34.321704,
   "lon": -70.833901,
   "institucion": "INIA",
   "estado": "en línea",
   "vigencia": "hoy",
   "t_min": 7.4,
   "t_max": 8.6,
   "hr": 97.2,
   "lluvia_hoy": 4.3,
   "lluvia_ayer": 0.0,
   "viento": 1.1,
   "viento_max": 15.0,
   "dir_viento": 19.0
  },
  "inia:163": {
   "id": "163",
   "nombre": "El Arenal",
   "comuna": "Quinta de Tilcoco",
   "region": "O'Higgins",
   "lat": -34.35575,
   "lon": -70.991278,
   "institucion": "INIA",
   "estado": "en línea",
   "vigencia": "hoy",
   "t_min": 8.2,
   "t_max": 9.2,
   "hr": 92.8,
   "lluvia_hoy": 9.5,
   "lluvia_ayer": 0.0,
   "viento": 0.1,
   "viento_max": 6.1,
   "dir_viento": 28.0
  },
  "inia:334": {
   "id": "334",
   "nombre": "Calleuque",
   "comuna": "Peralillo",
   "region": "O'Higgins",
   "lat": -34.3903,
   "lon": -71.444431,
   "institucion": "VDCH",
   "estado": "en línea",
   "vigencia": "hoy",
   "t_min": 9.7,
   "t_max": 9.8,
   "hr": 98.4,
   "lluvia_hoy": 0.3,
   "lluvia_ayer": 3.4,
   "viento": 0.1,
   "viento_max": 2.9,
   "dir_viento": 179.0
  },
  "inia:228": {
   "id": "228",
   "nombre": "Liceo Jean Buchanan",
   "comuna": "Peumo",
   "region": "O'Higgins",
   "lat": -34.3972892,
   "lon": -71.1646719,
   "institucion": "INIA",
   "estado": "en línea",
   "vigencia": "hoy",
   "t_min": 8.6,
   "t_max": 9.5,
   "hr": 93.7,
   "lluvia_hoy": 16.1,
   "lluvia_ayer": 0.3,
   "viento": 0.5,
   "viento_max": 9.4,
   "dir_viento": 111.0
  },
  "inia:52": {
   "id": "52",
   "nombre": "El Tambo",
   "comuna": "San Vicente",
   "region": "O'Higgins",
   "lat": -34.470992321899,
   "lon": -70.986951436879,
   "institucion": "INIA",
   "estado": "en línea",
   "vigencia": "hoy",
   "t_min": 8.3,
   "t_max": 9.7,
   "hr": 94.0,
   "lluvia_hoy": 11.1,
   "lluvia_ayer": 0.0,
   "viento": 0.6,
   "viento_max": 5.6,
   "dir_viento": 131.0
  },
  "inia:329": {
   "id": "329",
   "nombre": "Los Lingues",
   "comuna": "San Fernando",
   "region": "O'Higgins",
   "lat": -34.502129,
   "lon": -70.894723,
   "institucion": "VDCH",
   "estado": "en línea",
   "vigencia": "hoy",
   "t_min": 8.0,
   "t_max": 9.6,
   "hr": 90.3,
   "lluvia_hoy": 10.8,
   "lluvia_ayer": 0.0,
   "viento": 2.1,
   "viento_max": 18.0,
   "dir_viento": 242.0
  },
  "ext:155": {
   "id": "155",
   "nombre": "Nilahue - La Quebrada",
   "comuna": "Pumanque",
   "region": "O'Higgins",
   "lat": -34.66083,
   "lon": -71.73528,
   "institucion": "DMC",
   "estado": "en línea",
   "vigencia": "hoy",
   "t_min": 9.1,
   "t_max": 9.8,
   "hr": 99.8,
   "lluvia_hoy": 0.1,
   "lluvia_ayer": 0.2,
   "viento": 0.0,
   "viento_max": 5.4,
   "dir_viento": 185.0
  },
  "inia:317": {
   "id": "317",
   "nombre": "Peor es Nada",
   "comuna": "Chimbarongo",
   "region": "O'Higgins",
   "lat": -34.783248,
   "lon": -71.043411,
   "institucion": "INIA",
   "estado": "en línea",
   "vigencia": "hoy",
   "t_min": 7.7,
   "t_max": 8.3,
   "hr": 92.6,
   "lluvia_hoy": 14.7,
   "lluvia_ayer": 0.3,
   "viento": 2.0,
   "viento_max": 18.8,
   "dir_viento": 63.0
  },
  "ext:156": {
   "id": "156",
   "nombre": "Panguilemo",
   "comuna": "Talca",
   "region": "Maule",
   "lat": -35.37778,
   "lon": -71.60111,
   "institucion": "DMC",
   "estado": "en línea",
   "vigencia": "hoy",
   "t_min": 9.2,
   "t_max": 10.2,
   "hr": 98.8,
   "lluvia_hoy": 1.5,
   "lluvia_ayer": 4.5,
   "viento": 3.4,
   "viento_max": 13.0,
   "dir_viento": 103.0
  },
  "inia:333": {
   "id": "333",
   "nombre": "Pencahue",
   "comuna": "Pencahue",
   "region": "Maule",
   "lat": -35.44522,
   "lon": -71.83436,
   "institucion": "VDCH",
   "estado": "en línea",
   "vigencia": "hoy",
   "t_min": 8.6,
   "t_max": 10.6,
   "hr": 93.0,
   "lluvia_hoy": 8.0,
   "lluvia_ayer": 0.5,
   "viento": 0.2,
   "viento_max": 5.6,
   "dir_viento": 78.0
  },
  "inia:135": {
   "id": "135",
   "nombre": "San Clemente",
   "comuna": "San Clemente",
   "region": "Maule",
   "lat": -35.530653,
   "lon": -71.479505,
   "institucion": "INIA",
   "estado": "en línea",
   "vigencia": "hoy",
   "t_min": 8.6,
   "t_max": 9.4,
   "hr": 90.6,
   "lluvia_hoy": 10.9,
   "lluvia_ayer": 0.2,
   "viento": 0.4,
   "viento_max": 8.0,
   "dir_viento": 50.0
  },
  "ext:977": {
   "id": "977",
   "nombre": "Villa Alegre",
   "comuna": "Villa Alegre",
   "region": "Maule",
   "lat": -35.69611,
   "lon": -71.68222,
   "institucion": "FDF",
   "estado": "en línea",
   "vigencia": "hoy",
   "t_min": 8.9,
   "t_max": 9.6,
   "hr": 93.6,
   "lluvia_hoy": 9.8,
   "lluvia_ayer": 0.8,
   "viento": 0.0,
   "viento_max": 1.1,
   "dir_viento": 193.0
  },
  "inia:22": {
   "id": "22",
   "nombre": "Chanco",
   "comuna": "Chanco",
   "region": "Maule",
   "lat": -35.714077,
   "lon": -72.521301,
   "institucion": "INIA",
   "estado": "fuera de línea",
   "vigencia": "ayer",
   "t_min": 7.8,
   "t_max": 14.9,
   "hr": 84.8,
   "lluvia_hoy": 0.0,
   "lluvia_ayer": 0.0,
   "viento": 0.2,
   "viento_max": 11.2,
   "dir_viento": 66.0
  },
  "inia:11": {
   "id": "11",
   "nombre": "Sauzal",
   "comuna": "Cauquenes",
   "region": "Maule",
   "lat": -35.719059,
   "lon": -72.117767,
   "institucion": "INIA",
   "estado": "en línea",
   "vigencia": "hoy",
   "t_min": 8.6,
   "t_max": 9.0,
   "hr": 91.8,
   "lluvia_hoy": 0.1,
   "lluvia_ayer": 0.0,
   "viento": 1.3,
   "viento_max": 11.5,
   "dir_viento": 136.0
  },
  "inia:136": {
   "id": "136",
   "nombre": "Santa Amada",
   "comuna": "Linares",
   "region": "Maule",
   "lat": -35.764696,
   "lon": -71.574996,
   "institucion": "INIA",
   "estado": "en línea",
   "vigencia": "hoy",
   "t_min": 8.0,
   "t_max": 8.5,
   "hr": 96.8,
   "lluvia_hoy": 7.6,
   "lluvia_ayer": 0.9,
   "viento": 1.1,
   "viento_max": 7.5,
   "dir_viento": 136.0
  },
  "ext:974": {
   "id": "974",
   "nombre": "Escuela de Artillería",
   "comuna": "Linares",
   "region": "Maule",
   "lat": -35.83694,
   "lon": -71.59278,
   "institucion": "MMA-DMC",
   "estado": "en línea",
   "vigencia": "hoy",
   "t_min": 8.7,
   "t_max": 9.1,
   "hr": 99.0,
   "lluvia_hoy": 3.2,
   "lluvia_ayer": 0.3,
   "viento": 2.4,
   "viento_max": 12.6,
   "dir_viento": 224.0
  },
  "inia:327": {
   "id": "327",
   "nombre": "Villa Seca",
   "comuna": "Retiro",
   "region": "Maule",
   "lat": -35.890453,
   "lon": -71.85712,
   "institucion": "VDCH",
   "estado": "en línea",
   "vigencia": "hoy",
   "t_min": 8.8,
   "t_max": 9.6,
   "hr": 93.1,
   "lluvia_hoy": 5.9,
   "lluvia_ayer": 0.5,
   "viento": 3.3,
   "viento_max": 12.3,
   "dir_viento": 144.0
  },
  "inia:46": {
   "id": "46",
   "nombre": "Cauquenes",
   "comuna": "Cauquenes",
   "region": "Maule",
   "lat": -35.95597397,
   "lon": -72.2899376,
   "institucion": "INIA",
   "estado": "en línea",
   "vigencia": "hoy",
   "t_min": 7.2,
   "t_max": 8.2,
   "hr": 95.9,
   "lluvia_hoy": 0.0,
   "lluvia_ayer": 0.0,
   "viento": 0.0,
   "viento_max": 0.0,
   "dir_viento": 0.0
  },
  "ext:960": {
   "id": "960",
   "nombre": "Parral",
   "comuna": "Parral",
   "region": "Maule",
   "lat": -36.197588,
   "lon": -71.814217,
   "institucion": "AGRICHILE",
   "estado": "en línea",
   "vigencia": "hoy",
   "t_min": 7.9,
   "t_max": 8.3,
   "hr": 99.9,
   "lluvia_hoy": 0.0,
   "lluvia_ayer": 0.2,
   "viento": 1.7,
   "viento_max": 9.7,
   "dir_viento": 224.0
  },
  "inia:139": {
   "id": "139",
   "nombre": "Centro Experimental Arroz",
   "comuna": "San Carlos",
   "region": "Ñuble",
   "lat": -36.409298,
   "lon": -72.006731,
   "institucion": "INIA",
   "estado": "en línea",
   "vigencia": "hoy",
   "t_min": 6.2,
   "t_max": 7.9,
   "hr": 99.9,
   "lluvia_hoy": 0.4,
   "lluvia_ayer": 0.0,
   "viento": 4.3,
   "viento_max": 14.2,
   "dir_viento": 187.0
  },
  "ext:157": {
   "id": "157",
   "nombre": "Aeródromo Gral. Bernardo O'Higgins",
   "comuna": "Chillán",
   "region": "Ñuble",
   "lat": -36.58722,
   "lon": -72.04,
   "institucion": "DMC",
   "estado": "en línea",
   "vigencia": "hoy",
   "t_min": 5.8,
   "t_max": 7.3,
   "hr": 100.0,
   "lluvia_hoy": 0.2,
   "lluvia_ayer": 0.0,
   "viento": 7.1,
   "viento_max": 13.7,
   "dir_viento": 233.0
  },
  "inia:351": {
   "id": "351",
   "nombre": "Quilamapu",
   "comuna": "Chillán",
   "region": "Ñuble",
   "lat": -36.595,
   "lon": -72.0897,
   "institucion": "INIA",
   "estado": "en línea",
   "vigencia": "hoy",
   "t_min": 5.7,
   "t_max": 7.9,
   "hr": 90.8,
   "lluvia_hoy": 0.0,
   "lluvia_ayer": 0.0,
   "viento": 1.3,
   "viento_max": 7.7,
   "dir_viento": 183.0
  },
  "inia:73": {
   "id": "73",
   "nombre": "Navidad",
   "comuna": "El Carmen",
   "region": "Ñuble",
   "lat": -36.916365,
   "lon": -71.834824,
   "institucion": "INIA",
   "estado": "en línea",
   "vigencia": "hoy",
   "t_min": 4.5,
   "t_max": 5.9,
   "hr": 90.0,
   "lluvia_hoy": 0.0,
   "lluvia_ayer": 0.0,
   "viento": 0.0,
   "viento_max": 4.0,
   "dir_viento": 18.0
  },
  "inia:49": {
   "id": "49",
   "nombre": "Yungay",
   "comuna": "Yungay",
   "region": "Ñuble",
   "lat": -37.141385,
   "lon": -72.011761,
   "institucion": "INIA",
   "estado": "en línea",
   "vigencia": "hoy",
   "t_min": 3.5,
   "t_max": 5.0,
   "hr": 94.4,
   "lluvia_hoy": 0.0,
   "lluvia_ayer": 2.4,
   "viento": 0.0,
   "viento_max": 0.0,
   "dir_viento": 0.0
  },
  "ext:229": {
   "id": "229",
   "nombre": "Aeródromo María Dolores",
   "comuna": "Los Ángeles",
   "region": "Biobío",
   "lat": -37.39694,
   "lon": -72.42389,
   "institucion": "DMC",
   "estado": "en línea",
   "vigencia": "hoy",
   "t_min": 0.4,
   "t_max": 2.3,
   "hr": 100.0,
   "lluvia_hoy": 0.0,
   "lluvia_ayer": 0.0,
   "viento": 1.0,
   "viento_max": 5.4,
   "dir_viento": 140.0
  },
  "ext:162": {
   "id": "162",
   "nombre": "Liceo Agrícola El Huertón",
   "comuna": "Los Ángeles",
   "region": "Biobío",
   "lat": -37.45694,
   "lon": -72.275,
   "institucion": "DMC",
   "estado": "en línea",
   "vigencia": "hoy",
   "t_min": 2.3,
   "t_max": 4.1,
   "hr": 99.6,
   "lluvia_hoy": 0.0,
   "lluvia_ayer": 10.9,
   "viento": 3.3,
   "viento_max": 9.4,
   "dir_viento": 178.0
  },
  "inia:237": {
   "id": "237",
   "nombre": "El Vergel",
   "comuna": "Angol",
   "region": "La Araucanía",
   "lat": -37.8278098,
   "lon": -72.6596649,
   "institucion": "INIA",
   "estado": "en línea",
   "vigencia": "hoy",
   "t_min": 3.4,
   "t_max": 5.6,
   "hr": 97.7,
   "lluvia_hoy": 0.1,
   "lluvia_ayer": 0.0,
   "viento": 1.7,
   "viento_max": 17.2,
   "dir_viento": 77.0
  },
  "inia:235": {
   "id": "235",
   "nombre": "San Sebastián",
   "comuna": "Perquenco",
   "region": "La Araucanía",
   "lat": -38.435064,
   "lon": -72.399024,
   "institucion": "INIA",
   "estado": "en línea",
   "vigencia": "hoy",
   "t_min": 1.8,
   "t_max": 3.6,
   "hr": 98.3,
   "lluvia_hoy": 0.2,
   "lluvia_ayer": 0.0,
   "viento": 1.2,
   "viento_max": 11.2,
   "dir_viento": 86.0
  },
  "ext:1023": {
   "id": "1023",
   "nombre": "Ignao",
   "comuna": "Río Bueno",
   "region": "Los Ríos",
   "lat": -40.339544,
   "lon": -72.576714,
   "institucion": "COLUN",
   "estado": "en línea",
   "vigencia": "hoy",
   "t_min": -1.2,
   "t_max": 1.8,
   "hr": 99.2,
   "lluvia_hoy": 0.0,
   "lluvia_ayer": 0.0,
   "viento": 8.7,
   "viento_max": 15.8,
   "dir_viento": 129.0
  },
  "ext:76": {
   "id": "76",
   "nombre": "Adolfo Matthei",
   "comuna": "Osorno",
   "region": "Los Lagos",
   "lat": -40.59056,
   "lon": -73.11222,
   "institucion": "DMC",
   "estado": "en línea",
   "vigencia": "hoy",
   "t_min": -1.9,
   "t_max": 2.3,
   "hr": 92.6,
   "lluvia_hoy": 0.0,
   "lluvia_ayer": 0.0,
   "viento": 3.0,
   "viento_max": 11.9,
   "dir_viento": 180.0
  }
 },
 "name2id": {
  "Illapel": "ext:5",
  "Aeródromo La Florida": "ext:100",
  "Escuela Agrícola Ovalle": "ext:101",
  "La Cruz": "inia:51",
  "Liceo Agrícola Quillota": "ext:1029",
  "El Asiento (Alhué)": "inia:210",
  "Los Tilos (Buin)": "inia:6",
  "Valdivia de Paine (Buin)": "inia:321",
  "Aeródromo Curacaví": "ext:150",
  "San Antonio de Naltahua": "inia:100",
  "Chorrillos (Lampa)": "inia:314",
  "Chorombo Hacienda": "ext:141",
  "Talagante": "ext:118",
  "Peor es Nada (Chimbarongo)": "inia:317",
  "Liceo Jean Buchanan (Peumo)": "inia:228",
  "Nilahue - La Quebrada": "ext:155",
  "El Arenal (Q. Tilcoco)": "inia:163",
  "Rayentué (Rengo)": "inia:303",
  "El Tambo (San Vicente)": "inia:52",
  "Calleuque (Peralillo)": "inia:334",
  "Los Lingues (San Fernando)": "inia:329",
  "Cauquenes": "inia:46",
  "Sauzal (Cauquenes)": "inia:11",
  "Chanco": "inia:22",
  "Hualañé": "ext:983",
  "Escuela de Artillería (Linares)": "ext:974",
  "Santa Amada (Linares)": "inia:136",
  "Parral": "ext:960",
  "El Auquil (Pelarco)": "ext:992",
  "Pencahue": "inia:333",
  "Villa Seca (Retiro)": "inia:327",
  "San Clemente": "inia:135",
  "Panguilemo (Talca)": "ext:156",
  "Talca": "ext:982",
  "Teno": "ext:1031",
  "Villa Alegre": "ext:977",
  "Aeródromo Gral. B. O'Higgins (Chillán)": "ext:157",
  "Quilamapu (Chillán)": "inia:351",
  "Navidad (El Carmen)": "inia:73",
  "Centro Experimental Arroz (San Carlos)": "inia:139",
  "Yungay": "inia:49",
  "Aeródromo María Dolores (Los Ángeles)": "ext:229",
  "Liceo Agrícola El Huertón (Los Ángeles)": "ext:162",
  "El Vergel (Angol)": "inia:237",
  "San Sebastián (Perquenco)": "inia:235",
  "Ignao (Río Bueno)": "ext:1023",
  "Adolfo Matthei (Osorno)": "ext:76"
 },
 "anual": {
  "ext:5": 153.5,
  "ext:100": 133.6,
  "ext:101": 150.6,
  "inia:51": 268.4,
  "ext:1029": 221.1,
  "inia:210": 165.3,
  "inia:6": 137.5,
  "inia:321": 201.6,
  "ext:150": 47.8,
  "inia:100": 227.5,
  "inia:314": 101.3,
  "ext:141": 0.0,
  "ext:118": 137.4,
  "inia:317": 248.4,
  "inia:228": 204.2,
  "ext:155": 105.8,
  "inia:163": 147.0,
  "inia:303": 74.9,
  "inia:52": 185.0,
  "inia:334": 131.1,
  "inia:329": 179.1,
  "inia:46": 185.9,
  "inia:11": 185.4,
  "inia:22": 373.4,
  "ext:983": 136.0,
  "ext:974": 205.8,
  "inia:136": 345.1,
  "ext:960": 579.2,
  "ext:992": 203.0,
  "inia:333": 263.8,
  "inia:327": 381.8,
  "inia:135": 257.5,
  "ext:156": 339.4,
  "ext:982": 146.5,
  "ext:1031": 218.2,
  "ext:977": 355.6,
  "ext:157": 392.8,
  "inia:351": 317.5,
  "inia:73": 671.7,
  "inia:139": 449.1,
  "inia:49": 657.7,
  "ext:229": 531.8,
  "ext:162": 410.1,
  "inia:237": 416.6,
  "inia:235": 559.9,
  "ext:1023": 750.5,
  "ext:76": 504.8
 }
}