{
 "timestamp": "2026-07-23T03:45-04:00",
 "estaciones": {
  "ext:100": {
   "id": "100",
   "nombre": "Aeródromo La Florida",
   "comuna": "La Serena",
   "region": "Coquimbo",
   "lat": -29.9175,
   "lon": -71.20111,
   "institucion": "DMC",
   "estado": "en línea",
   "vigencia": "hoy",
   "t_min": 12.9,
   "t_max": 13.2,
   "hr": 85.9,
   "lluvia_hoy": 0.0,
   "lluvia_ayer": 0.0,
   "viento": 8.8,
   "viento_max": 14.0,
   "dir_viento": 102.0
  },
  "ext:101": {
   "id": "101",
   "nombre": "Escuela Agrícola",
   "comuna": "Ovalle",
   "region": "Coquimbo",
   "lat": -30.58,
   "lon": -71.18667,
   "institucion": "DMC",
   "estado": "en línea",
   "vigencia": "hoy",
   "t_min": 12.4,
   "t_max": 12.4,
   "hr": 77.0,
   "lluvia_hoy": 0.0,
   "lluvia_ayer": 0.0,
   "viento": 4.7,
   "viento_max": 8.6,
   "dir_viento": 145.0
  },
  "inia:51": {
   "id": "51",
   "nombre": "La Cruz",
   "comuna": "La Cruz",
   "region": "Valparaíso",
   "lat": -32.822,
   "lon": -71.2304,
   "institucion": "INIA",
   "estado": "en línea",
   "vigencia": "hoy",
   "t_min": 10.2,
   "t_max": 10.4,
   "hr": 80.2,
   "lluvia_hoy": 0.0,
   "lluvia_ayer": 0.1,
   "viento": 0.0,
   "viento_max": 3.7,
   "dir_viento": 39.0
  },
  "ext:1029": {
   "id": "1029",
   "nombre": "Liceo Agrícola Quillota",
   "comuna": "Quillota",
   "region": "Valparaíso",
   "lat": -32.90722,
   "lon": -71.27139,
   "institucion": "DMC",
   "estado": "en línea",
   "vigencia": "hoy",
   "t_min": 10.5,
   "t_max": 10.8,
   "hr": 87.8,
   "lluvia_hoy": 0.0,
   "lluvia_ayer": 0.1,
   "viento": 2.6,
   "viento_max": 5.4,
   "dir_viento": 158.0
  },
  "inia:314": {
   "id": "314",
   "nombre": "Chorrillos",
   "comuna": "Lampa",
   "region": "Metropolitana",
   "lat": -33.34368,
   "lon": -70.8185,
   "institucion": "INIA",
   "estado": "en línea",
   "vigencia": "hoy",
   "t_min": 8.6,
   "t_max": 9.4,
   "hr": 82.0,
   "lluvia_hoy": 0.0,
   "lluvia_ayer": 0.0,
   "viento": 5.4,
   "viento_max": 15.3,
   "dir_viento": 211.0
  },
  "ext:150": {
   "id": "150",
   "nombre": "Aeródromo Curacaví",
   "comuna": "Curacaví",
   "region": "Metropolitana",
   "lat": -33.41111,
   "lon": -71.16778,
   "institucion": "DMC",
   "estado": "en línea",
   "vigencia": "hoy",
   "t_min": 9.9,
   "t_max": 10.2,
   "hr": 89.6,
   "lluvia_hoy": 0.0,
   "lluvia_ayer": 0.0,
   "viento": 3.1,
   "viento_max": 12.2,
   "dir_viento": 16.0
  },
  "ext:141": {
   "id": "141",
   "nombre": "Chorombo Hacienda",
   "comuna": "María Pinto",
   "region": "Metropolitana",
   "lat": -33.52944,
   "lon": -71.22917,
   "institucion": "DMC",
   "estado": "en línea",
   "vigencia": "hoy",
   "t_min": 9.8,
   "t_max": 9.8,
   "hr": 96.5,
   "lluvia_hoy": null,
   "lluvia_ayer": null,
   "viento": 2.6,
   "viento_max": 5.8,
   "dir_viento": 336.0
  },
  "ext:118": {
   "id": "118",
   "nombre": "Talagante",
   "comuna": "Talagante",
   "region": "Metropolitana",
   "lat": -33.67028,
   "lon": -70.84944,
   "institucion": "DMC",
   "estado": "en línea",
   "vigencia": "hoy",
   "t_min": 9.5,
   "t_max": 9.5,
   "hr": 83.8,
   "lluvia_hoy": 0.0,
   "lluvia_ayer": 0.1,
   "viento": 1.8,
   "viento_max": 6.5,
   "dir_viento": 305.0
  },
  "inia:6": {
   "id": "6",
   "nombre": "Los Tilos",
   "comuna": "Buin",
   "region": "Metropolitana",
   "lat": -33.70726005,
   "lon": -70.70165517,
   "institucion": "INIA",
   "estado": "en línea",
   "vigencia": "hoy",
   "t_min": 10.1,
   "t_max": 11.0,
   "hr": 68.2,
   "lluvia_hoy": 0.0,
   "lluvia_ayer": 0.1,
   "viento": 5.2,
   "viento_max": 19.9,
   "dir_viento": 206.0
  },
  "inia:100": {
   "id": "100",
   "nombre": "San Antonio de Naltahua",
   "comuna": "Isla de Maipo",
   "region": "Metropolitana",
   "lat": -33.732181,
   "lon": -71.039443,
   "institucion": "INIA",
   "estado": "en línea",
   "vigencia": "hoy",
   "t_min": 8.7,
   "t_max": 9.5,
   "hr": 84.8,
   "lluvia_hoy": 0.0,
   "lluvia_ayer": 0.0,
   "viento": 1.1,
   "viento_max": 10.7,
   "dir_viento": 178.0
  },
  "inia:321": {
   "id": "321",
   "nombre": "Valdivia de Paine",
   "comuna": "Buin",
   "region": "Metropolitana",
   "lat": -33.7986592,
   "lon": -70.8413394,
   "institucion": "INIA",
   "estado": "en línea",
   "vigencia": "hoy",
   "t_min": 8.7,
   "t_max": 8.7,
   "hr": 90.6,
   "lluvia_hoy": 0.0,
   "lluvia_ayer": 0.1,
   "viento": 0.8,
   "viento_max": 5.6,
   "dir_viento": 146.0
  },
  "inia:210": {
   "id": "210",
   "nombre": "El Asiento",
   "comuna": "Alhué",
   "region": "Metropolitana",
   "lat": -34.029282,
   "lon": -70.995098,
   "institucion": "INIA",
   "estado": "en línea",
   "vigencia": "hoy",
   "t_min": 9.4,
   "t_max": 10.9,
   "hr": 71.6,
   "lluvia_hoy": 0.0,
   "lluvia_ayer": 0.0,
   "viento": 3.6,
   "viento_max": 15.0,
   "dir_viento": 80.0
  },
  "inia:303": {
   "id": "303",
   "nombre": "Rayentué",
   "comuna": "Rengo",
   "region": "O'Higgins",
   "lat": -34.321704,
   "lon": -70.833901,
   "institucion": "INIA",
   "estado": "en línea",
   "vigencia": "hoy",
   "t_min": 9.5,
   "t_max": 10.9,
   "hr": 69.6,
   "lluvia_hoy": 0.0,
   "lluvia_ayer": 0.0,
   "viento": 2.2,
   "viento_max": 9.6,
   "dir_viento": 274.0
  },
  "inia:163": {
   "id": "163",
   "nombre": "El Arenal",
   "comuna": "Quinta de Tilcoco",
   "region": "O'Higgins",
   "lat": -34.35575,
   "lon": -70.991278,
   "institucion": "INIA",
   "estado": "en línea",
   "vigencia": "hoy",
   "t_min": 9.7,
   "t_max": 10.7,
   "hr": 81.0,
   "lluvia_hoy": 0.0,
   "lluvia_ayer": 0.0,
   "viento": 2.9,
   "viento_max": 14.0,
   "dir_viento": 211.0
  },
  "inia:334": {
   "id": "334",
   "nombre": "Calleuque",
   "comuna": "Peralillo",
   "region": "O'Higgins",
   "lat": -34.3903,
   "lon": -71.444431,
   "institucion": "VDCH",
   "estado": "en línea",
   "vigencia": "hoy",
   "t_min": 10.2,
   "t_max": 10.6,
   "hr": 93.9,
   "lluvia_hoy": 0.0,
   "lluvia_ayer": 0.1,
   "viento": 0.3,
   "viento_max": 5.0,
   "dir_viento": 167.0
  },
  "inia:228": {
   "id": "228",
   "nombre": "Liceo Jean Buchanan",
   "comuna": "Peumo",
   "region": "O'Higgins",
   "lat": -34.3972892,
   "lon": -71.1646719,
   "institucion": "INIA",
   "estado": "en línea",
   "vigencia": "hoy",
   "t_min": 9.6,
   "t_max": 10.1,
   "hr": 88.9,
   "lluvia_hoy": 0.0,
   "lluvia_ayer": 0.0,
   "viento": 1.6,
   "viento_max": 11.2,
   "dir_viento": 246.0
  },
  "inia:52": {
   "id": "52",
   "nombre": "El Tambo",
   "comuna": "San Vicente",
   "region": "O'Higgins",
   "lat": -34.470992321899,
   "lon": -70.986951436879,
   "institucion": "INIA",
   "estado": "en línea",
   "vigencia": "hoy",
   "t_min": 9.9,
   "t_max": 10.4,
   "hr": 87.2,
   "lluvia_hoy": 0.0,
   "lluvia_ayer": 0.0,
   "viento": 4.9,
   "viento_max": 16.4,
   "dir_viento": 278.0
  },
  "inia:329": {
   "id": "329",
   "nombre": "Los Lingues",
   "comuna": "San Fernando",
   "region": "O'Higgins",
   "lat": -34.502129,
   "lon": -70.894723,
   "institucion": "VDCH",
   "estado": "en línea",
   "vigencia": "hoy",
   "t_min": 10.9,
   "t_max": 11.6,
   "hr": 70.2,
   "lluvia_hoy": 0.0,
   "lluvia_ayer": 0.0,
   "viento": 6.0,
   "viento_max": 21.8,
   "dir_viento": 215.0
  },
  "ext:155": {
   "id": "155",
   "nombre": "Nilahue - La Quebrada",
   "comuna": "Pumanque",
   "region": "O'Higgins",
   "lat": -34.66083,
   "lon": -71.73528,
   "institucion": "DMC",
   "estado": "fuera de línea",
   "vigencia": "ayer",
   "t_min": 11.0,
   "t_max": 16.5,
   "hr": 76.4,
   "lluvia_hoy": 0.2,
   "lluvia_ayer": 0.2,
   "viento": 5.0,
   "viento_max": 14.4,
   "dir_viento": 46.0
  },
  "inia:317": {
   "id": "317",
   "nombre": "Peor es Nada",
   "comuna": "Chimbarongo",
   "region": "O'Higgins",
   "lat": -34.783248,
   "lon": -71.043411,
   "institucion": "INIA",
   "estado": "en línea",
   "vigencia": "hoy",
   "t_min": 8.2,
   "t_max": 9.4,
   "hr": 85.8,
   "lluvia_hoy": 0.0,
   "lluvia_ayer": 0.0,
   "viento": 2.0,
   "viento_max": 11.2,
   "dir_viento": 155.0
  },
  "ext:1031": {
   "id": "1031",
   "nombre": "Teno",
   "comuna": "Teno",
   "region": "Maule",
   "lat": -34.862039,
   "lon": -71.091697,
   "institucion": "ARAUCO",
   "estado": "fuera de línea",
   "vigencia": "ayer",
   "t_min": 8.0,
   "t_max": 16.6,
   "hr": 76.3,
   "lluvia_hoy": 0.0,
   "lluvia_ayer": 0.0,
   "viento": 3.7,
   "viento_max": 14.0,
   "dir_viento": 214.0
  },
  "ext:983": {
   "id": "983",
   "nombre": "Hualañé",
   "comuna": "Hualañé",
   "region": "Maule",
   "lat": -34.983367,
   "lon": -71.781691,
   "institucion": "ARAUCO",
   "estado": "fuera de línea",
   "vigencia": "ayer",
   "t_min": 10.2,
   "t_max": 17.1,
   "hr": 85.6,
   "lluvia_hoy": 0.0,
   "lluvia_ayer": 0.0,
   "viento": 1.2,
   "viento_max": 19.1,
   "dir_viento": 133.0
  },
  "ext:156": {
   "id": "156",
   "nombre": "Panguilemo",
   "comuna": "Talca",
   "region": "Maule",
   "lat": -35.37778,
   "lon": -71.60111,
   "institucion": "DMC",
   "estado": "en línea",
   "vigencia": "hoy",
   "t_min": 11.8,
   "t_max": 12.0,
   "hr": 76.6,
   "lluvia_hoy": 0.1,
   "lluvia_ayer": 1.9,
   "viento": 9.6,
   "viento_max": 17.6,
   "dir_viento": 26.0
  },
  "ext:992": {
   "id": "992",
   "nombre": "El Auquil",
   "comuna": "Pelarco",
   "region": "Maule",
   "lat": -35.391303,
   "lon": -71.29552,
   "institucion": "ARAUCO",
   "estado": "fuera de línea",
   "vigencia": "ayer",
   "t_min": 9.0,
   "t_max": 17.2,
   "hr": 77.0,
   "lluvia_hoy": 0.0,
   "lluvia_ayer": 0.0,
   "viento": 2.8,
   "viento_max": 15.8,
   "dir_viento": 80.0
  },
  "ext:982": {
   "id": "982",
   "nombre": "Talca",
   "comuna": "Talca",
   "region": "Maule",
   "lat": -35.414716,
   "lon": -71.611857,
   "institucion": "ARAUCO",
   "estado": "fuera de línea",
   "vigencia": "ayer",
   "t_min": 11.1,
   "t_max": 19.3,
   "hr": 66.8,
   "lluvia_hoy": 0.0,
   "lluvia_ayer": 0.0,
   "viento": 2.7,
   "viento_max": 13.0,
   "dir_viento": 108.0
  },
  "inia:333": {
   "id": "333",
   "nombre": "Pencahue",
   "comuna": "Pencahue",
   "region": "Maule",
   "lat": -35.44522,
   "lon": -71.83436,
   "institucion": "VDCH",
   "estado": "en línea",
   "vigencia": "hoy",
   "t_min": 12.1,
   "t_max": 13.5,
   "hr": 74.3,
   "lluvia_hoy": 0.2,
   "lluvia_ayer": 0.0,
   "viento": 2.1,
   "viento_max": 10.4,
   "dir_viento": 136.0
  },
  "inia:135": {
   "id": "135",
   "nombre": "San Clemente",
   "comuna": "San Clemente",
   "region": "Maule",
   "lat": -35.530653,
   "lon": -71.479505,
   "institucion": "INIA",
   "estado": "en línea",
   "vigencia": "hoy",
   "t_min": 10.3,
   "t_max": 10.8,
   "hr": 78.4,
   "lluvia_hoy": 0.0,
   "lluvia_ayer": 0.1,
   "viento": 0.6,
   "viento_max": 12.9,
   "dir_viento": 42.0
  },
  "ext:977": {
   "id": "977",
   "nombre": "Villa Alegre",
   "comuna": "Villa Alegre",
   "region": "Maule",
   "lat": -35.69611,
   "lon": -71.68222,
   "institucion": "FDF",
   "estado": "en línea",
   "vigencia": "hoy",
   "t_min": 11.6,
   "t_max": 11.9,
   "hr": 79.0,
   "lluvia_hoy": 0.0,
   "lluvia_ayer": 0.0,
   "viento": 0.0,
   "viento_max": 1.1,
   "dir_viento": 54.0
  },
  "inia:22": {
   "id": "22",
   "nombre": "Chanco",
   "comuna": "Chanco",
   "region": "Maule",
   "lat": -35.714077,
   "lon": -72.521301,
   "institucion": "INIA",
   "estado": "fuera de línea",
   "vigencia": "ayer",
   "t_min": 11.4,
   "t_max": 14.1,
   "hr": 87.7,
   "lluvia_hoy": 29.8,
   "lluvia_ayer": 29.8,
   "viento": 7.6,
   "viento_max": 46.1,
   "dir_viento": 151.0
  },
  "inia:11": {
   "id": "11",
   "nombre": "Sauzal",
   "comuna": "Cauquenes",
   "region": "Maule",
   "lat": -35.719059,
   "lon": -72.117767,
   "institucion": "INIA",
   "estado": "en línea",
   "vigencia": "hoy",
   "t_min": 11.9,
   "t_max": 12.2,
   "hr": 67.0,
   "lluvia_hoy": 0.0,
   "lluvia_ayer": 3.3,
   "viento": 6.5,
   "viento_max": 15.3,
   "dir_viento": 186.0
  },
  "inia:136": {
   "id": "136",
   "nombre": "Santa Amada",
   "comuna": "Linares",
   "region": "Maule",
   "lat": -35.764696,
   "lon": -71.574996,
   "institucion": "INIA",
   "estado": "en línea",
   "vigencia": "hoy",
   "t_min": 10.7,
   "t_max": 11.0,
   "hr": 74.4,
   "lluvia_hoy": 0.0,
   "lluvia_ayer": 0.1,
   "viento": 3.7,
   "viento_max": 13.1,
   "dir_viento": 94.0
  },
  "ext:974": {
   "id": "974",
   "nombre": "Escuela de Artillería",
   "comuna": "Linares",
   "region": "Maule",
   "lat": -35.83694,
   "lon": -71.59278,
   "institucion": "MMA-DMC",
   "estado": "en línea",
   "vigencia": "hoy",
   "t_min": 11.8,
   "t_max": 11.9,
   "hr": 72.0,
   "lluvia_hoy": 0.0,
   "lluvia_ayer": 0.0,
   "viento": 6.0,
   "viento_max": 13.7,
   "dir_viento": 36.0
  },
  "inia:327": {
   "id": "327",
   "nombre": "Villa Seca",
   "comuna": "Retiro",
   "region": "Maule",
   "lat": -35.890453,
   "lon": -71.85712,
   "institucion": "VDCH",
   "estado": "en línea",
   "vigencia": "hoy",
   "t_min": 11.1,
   "t_max": 11.8,
   "hr": 79.9,
   "lluvia_hoy": 0.4,
   "lluvia_ayer": 0.2,
   "viento": 6.1,
   "viento_max": 17.2,
   "dir_viento": 38.0
  },
  "inia:46": {
   "id": "46",
   "nombre": "Cauquenes",
   "comuna": "Cauquenes",
   "region": "Maule",
   "lat": -35.95597397,
   "lon": -72.2899376,
   "institucion": "INIA",
   "estado": "en línea",
   "vigencia": "hoy",
   "t_min": 10.2,
   "t_max": 11.1,
   "hr": 79.8,
   "lluvia_hoy": 0.2,
   "lluvia_ayer": 10.3,
   "viento": 6.0,
   "viento_max": 20.2,
   "dir_viento": 52.0
  },
  "ext:960": {
   "id": "960",
   "nombre": "Parral",
   "comuna": "Parral",
   "region": "Maule",
   "lat": -36.197588,
   "lon": -71.814217,
   "institucion": "AGRICHILE",
   "estado": "en línea",
   "vigencia": "hoy",
   "t_min": 11.4,
   "t_max": 12.3,
   "hr": 80.1,
   "lluvia_hoy": 0.0,
   "lluvia_ayer": 0.8,
   "viento": 3.8,
   "viento_max": 13.3,
   "dir_viento": 23.0
  },
  "inia:139": {
   "id": "139",
   "nombre": "Centro Experimental Arroz",
   "comuna": "San Carlos",
   "region": "Ñuble",
   "lat": -36.409298,
   "lon": -72.006731,
   "institucion": "INIA",
   "estado": "en línea",
   "vigencia": "hoy",
   "t_min": 11.1,
   "t_max": 11.4,
   "hr": 78.8,
   "lluvia_hoy": 0.0,
   "lluvia_ayer": 1.5,
   "viento": 13.8,
   "viento_max": 23.9,
   "dir_viento": 32.0
  },
  "ext:157": {
   "id": "157",
   "nombre": "Aeródromo Gral. Bernardo O'Higgins",
   "comuna": "Chillán",
   "region": "Ñuble",
   "lat": -36.58722,
   "lon": -72.04,
   "institucion": "DMC",
   "estado": "en línea",
   "vigencia": "hoy",
   "t_min": 11.4,
   "t_max": 11.4,
   "hr": 82.1,
   "lluvia_hoy": 0.0,
   "lluvia_ayer": 1.0,
   "viento": 15.9,
   "viento_max": 21.2,
   "dir_viento": 18.0
  },
  "inia:351": {
   "id": "351",
   "nombre": "Quilamapu",
   "comuna": "Chillán",
   "region": "Ñuble",
   "lat": -36.595,
   "lon": -72.0897,
   "institucion": "INIA",
   "estado": "en línea",
   "vigencia": "hoy",
   "t_min": 11.6,
   "t_max": 11.9,
   "hr": 86.3,
   "lluvia_hoy": 0.0,
   "lluvia_ayer": 2.8,
   "viento": 6.8,
   "viento_max": 18.3,
   "dir_viento": 337.0
  },
  "inia:73": {
   "id": "73",
   "nombre": "Navidad",
   "comuna": "El Carmen",
   "region": "Ñuble",
   "lat": -36.916365,
   "lon": -71.834824,
   "institucion": "INIA",
   "estado": "en línea",
   "vigencia": "hoy",
   "t_min": 9.4,
   "t_max": 11.0,
   "hr": 71.0,
   "lluvia_hoy": 0.1,
   "lluvia_ayer": 0.3,
   "viento": 10.9,
   "viento_max": 39.1,
   "dir_viento": 33.0
  },
  "inia:49": {
   "id": "49",
   "nombre": "Yungay",
   "comuna": "Yungay",
   "region": "Ñuble",
   "lat": -37.141385,
   "lon": -72.011761,
   "institucion": "INIA",
   "estado": "en línea",
   "vigencia": "hoy",
   "t_min": 10.7,
   "t_max": 11.8,
   "hr": 76.2,
   "lluvia_hoy": 0.5,
   "lluvia_ayer": 6.5,
   "viento": 0.0,
   "viento_max": 0.0,
   "dir_viento": 0.0
  },
  "ext:162": {
   "id": "162",
   "nombre": "Liceo Agrícola El Huertón",
   "comuna": "Los Ángeles",
   "region": "Biobío",
   "lat": -37.45694,
   "lon": -72.275,
   "institucion": "DMC",
   "estado": "en línea",
   "vigencia": "hoy",
   "t_min": 11.1,
   "t_max": 11.2,
   "hr": 83.2,
   "lluvia_hoy": 0.0,
   "lluvia_ayer": 5.1,
   "viento": 12.4,
   "viento_max": 23.4,
   "dir_viento": 9.0
  },
  "inia:237": {
   "id": "237",
   "nombre": "El Vergel",
   "comuna": "Angol",
   "region": "La Araucanía",
   "lat": -37.8278098,
   "lon": -72.6596649,
   "institucion": "INIA",
   "estado": "en línea",
   "vigencia": "hoy",
   "t_min": 9.6,
   "t_max": 11.4,
   "hr": 86.0,
   "lluvia_hoy": 2.3,
   "lluvia_ayer": 22.7,
   "viento": 5.8,
   "viento_max": 22.9,
   "dir_viento": 19.0
  },
  "inia:235": {
   "id": "235",
   "nombre": "San Sebastián",
   "comuna": "Perquenco",
   "region": "La Araucanía",
   "lat": -38.435064,
   "lon": -72.399024,
   "institucion": "INIA",
   "estado": "en línea",
   "vigencia": "hoy",
   "t_min": 9.6,
   "t_max": 9.8,
   "hr": 75.4,
   "lluvia_hoy": 0.0,
   "lluvia_ayer": 6.5,
   "viento": 24.4,
   "viento_max": 48.0,
   "dir_viento": 14.0
  },
  "ext:1023": {
   "id": "1023",
   "nombre": "Ignao",
   "comuna": "Río Bueno",
   "region": "Los Ríos",
   "lat": -40.339544,
   "lon": -72.576714,
   "institucion": "COLUN",
   "estado": "en línea",
   "vigencia": "hoy",
   "t_min": 10.6,
   "t_max": 10.8,
   "hr": 78.9,
   "lluvia_hoy": 0.3,
   "lluvia_ayer": 8.5,
   "viento": 40.8,
   "viento_max": 46.8,
   "dir_viento": 278.0
  },
  "ext:76": {
   "id": "76",
   "nombre": "Adolfo Matthei",
   "comuna": "Osorno",
   "region": "Los Lagos",
   "lat": -40.59056,
   "lon": -73.11222,
   "institucion": "DMC",
   "estado": "en línea",
   "vigencia": "hoy",
   "t_min": 10.8,
   "t_max": 11.6,
   "hr": 87.0,
   "lluvia_hoy": 1.5,
   "lluvia_ayer": 3.6,
   "viento": 15.8,
   "viento_max": 33.1,
   "dir_viento": 182.0
  }
 },
 "name2id": {
  "Illapel": "ext:5",
  "Aeródromo La Florida": "ext:100",
  "Escuela Agrícola Ovalle": "ext:101",
  "La Cruz": "inia:51",
  "Liceo Agrícola Quillota": "ext:1029",
  "El Asiento (Alhué)": "inia:210",
  "Los Tilos (Buin)": "inia:6",
  "Valdivia de Paine (Buin)": "inia:321",
  "Aeródromo Curacaví": "ext:150",
  "San Antonio de Naltahua": "inia:100",
  "Chorrillos (Lampa)": "inia:314",
  "Chorombo Hacienda": "ext:141",
  "Talagante": "ext:118",
  "Peor es Nada (Chimbarongo)": "inia:317",
  "Liceo Jean Buchanan (Peumo)": "inia:228",
  "Nilahue - La Quebrada": "ext:155",
  "El Arenal (Q. Tilcoco)": "inia:163",
  "Rayentué (Rengo)": "inia:303",
  "El Tambo (San Vicente)": "inia:52",
  "Calleuque (Peralillo)": "inia:334",
  "Los Lingues (San Fernando)": "inia:329",
  "Cauquenes": "inia:46",
  "Sauzal (Cauquenes)": "inia:11",
  "Chanco": "inia:22",
  "Hualañé": "ext:983",
  "Escuela de Artillería (Linares)": "ext:974",
  "Santa Amada (Linares)": "inia:136",
  "Parral": "ext:960",
  "El Auquil (Pelarco)": "ext:992",
  "Pencahue": "inia:333",
  "Villa Seca (Retiro)": "inia:327",
  "San Clemente": "inia:135",
  "Panguilemo (Talca)": "ext:156",
  "Talca": "ext:982",
  "Teno": "ext:1031",
  "Villa Alegre": "ext:977",
  "Aeródromo Gral. B. O'Higgins (Chillán)": "ext:157",
  "Quilamapu (Chillán)": "inia:351",
  "Navidad (El Carmen)": "inia:73",
  "Centro Experimental Arroz (San Carlos)": "inia:139",
  "Yungay": "inia:49",
  "Aeródromo María Dolores (Los Ángeles)": "ext:229",
  "Liceo Agrícola El Huertón (Los Ángeles)": "ext:162",
  "El Vergel (Angol)": "inia:237",
  "San Sebastián (Perquenco)": "inia:235",
  "Ignao (Río Bueno)": "ext:1023",
  "Adolfo Matthei (Osorno)": "ext:76"
 },
 "anual": {
  "ext:5": 153.5,
  "ext:100": 183.0,
  "ext:101": 176.2,
  "inia:51": 342.7,
  "ext:1029": 273.4,
  "inia:210": 204.8,
  "inia:6": 168.8,
  "inia:321": 238.9,
  "ext:150": 83.6,
  "inia:100": 264.9,
  "inia:314": 135.1,
  "ext:141": 0.0,
  "ext:118": 163.3,
  "inia:317": 312.5,
  "inia:228": 278.8,
  "ext:155": 106.3,
  "inia:163": 190.1,
  "inia:303": 87.0,
  "inia:52": 233.2,
  "inia:334": 207.6,
  "inia:329": 218.6,
  "inia:46": 213.4,
  "inia:11": 211.4,
  "inia:22": 381.5,
  "ext:983": 349.3,
  "ext:974": 215.6,
  "inia:136": 362.8,
  "ext:960": 599.0,
  "ext:992": 349.0,
  "inia:333": 293.2,
  "inia:327": 402.5,
  "inia:135": 285.4,
  "ext:156": 348.7,
  "ext:982": 276.1,
  "ext:1031": 411.3,
  "ext:977": 379.4,
  "ext:157": 405.8,
  "inia:351": 332.4,
  "inia:73": 672.5,
  "inia:139": 468.6,
  "inia:49": 683.4,
  "ext:229": 532.2,
  "ext:162": 432.9,
  "inia:237": 437.8,
  "inia:235": 564.1,
  "ext:1023": 751.1,
  "ext:76": 505.0
 }
}