{
 "timestamp": "2026-07-22T09:12-04:00",
 "estaciones": {
  "ext:100": {
   "id": "100",
   "nombre": "Aeródromo La Florida",
   "comuna": "La Serena",
   "region": "Coquimbo",
   "lat": -29.9175,
   "lon": -71.20111,
   "institucion": "DMC",
   "estado": "en línea",
   "vigencia": "hoy",
   "t_min": 9.7,
   "t_max": 11.0,
   "hr": 86.1,
   "lluvia_hoy": 0.0,
   "lluvia_ayer": 16.6,
   "viento": 12.2,
   "viento_max": 20.5,
   "dir_viento": 101.0
  },
  "ext:101": {
   "id": "101",
   "nombre": "Escuela Agrícola",
   "comuna": "Ovalle",
   "region": "Coquimbo",
   "lat": -30.58,
   "lon": -71.18667,
   "institucion": "DMC",
   "estado": "en línea",
   "vigencia": "hoy",
   "t_min": 8.2,
   "t_max": 9.1,
   "hr": 90.7,
   "lluvia_hoy": 0.0,
   "lluvia_ayer": 12.0,
   "viento": 8.1,
   "viento_max": 11.9,
   "dir_viento": 83.0
  },
  "inia:51": {
   "id": "51",
   "nombre": "La Cruz",
   "comuna": "La Cruz",
   "region": "Valparaíso",
   "lat": -32.822,
   "lon": -71.2304,
   "institucion": "INIA",
   "estado": "en línea",
   "vigencia": "hoy",
   "t_min": 6.4,
   "t_max": 8.6,
   "hr": 90.2,
   "lluvia_hoy": 0.1,
   "lluvia_ayer": 25.4,
   "viento": 0.2,
   "viento_max": 5.6,
   "dir_viento": 45.0
  },
  "ext:1029": {
   "id": "1029",
   "nombre": "Liceo Agrícola Quillota",
   "comuna": "Quillota",
   "region": "Valparaíso",
   "lat": -32.90722,
   "lon": -71.27139,
   "institucion": "DMC",
   "estado": "en línea",
   "vigencia": "hoy",
   "t_min": 6.9,
   "t_max": 9.9,
   "hr": 85.4,
   "lluvia_hoy": 0.0,
   "lluvia_ayer": 20.0,
   "viento": 4.4,
   "viento_max": 9.4,
   "dir_viento": 96.0
  },
  "inia:314": {
   "id": "314",
   "nombre": "Chorrillos",
   "comuna": "Lampa",
   "region": "Metropolitana",
   "lat": -33.34368,
   "lon": -70.8185,
   "institucion": "INIA",
   "estado": "en línea",
   "vigencia": "hoy",
   "t_min": 3.3,
   "t_max": 6.2,
   "hr": 94.0,
   "lluvia_hoy": 0.0,
   "lluvia_ayer": 9.7,
   "viento": 1.8,
   "viento_max": 8.0,
   "dir_viento": 177.0
  },
  "ext:150": {
   "id": "150",
   "nombre": "Aeródromo Curacaví",
   "comuna": "Curacaví",
   "region": "Metropolitana",
   "lat": -33.41111,
   "lon": -71.16778,
   "institucion": "DMC",
   "estado": "en línea",
   "vigencia": "hoy",
   "t_min": 5.7,
   "t_max": 8.4,
   "hr": 97.0,
   "lluvia_hoy": 0.0,
   "lluvia_ayer": 16.5,
   "viento": 2.4,
   "viento_max": 13.0,
   "dir_viento": 274.0
  },
  "ext:141": {
   "id": "141",
   "nombre": "Chorombo Hacienda",
   "comuna": "María Pinto",
   "region": "Metropolitana",
   "lat": -33.52944,
   "lon": -71.22917,
   "institucion": "DMC",
   "estado": "en línea",
   "vigencia": "hoy",
   "t_min": 6.3,
   "t_max": 8.1,
   "hr": 99.6,
   "lluvia_hoy": null,
   "lluvia_ayer": null,
   "viento": 1.5,
   "viento_max": 6.1,
   "dir_viento": 247.0
  },
  "ext:118": {
   "id": "118",
   "nombre": "Talagante",
   "comuna": "Talagante",
   "region": "Metropolitana",
   "lat": -33.67028,
   "lon": -70.84944,
   "institucion": "DMC",
   "estado": "en línea",
   "vigencia": "hoy",
   "t_min": 4.1,
   "t_max": 5.4,
   "hr": 100.0,
   "lluvia_hoy": 0.0,
   "lluvia_ayer": 9.5,
   "viento": 1.4,
   "viento_max": 7.2,
   "dir_viento": 199.0
  },
  "inia:6": {
   "id": "6",
   "nombre": "Los Tilos",
   "comuna": "Buin",
   "region": "Metropolitana",
   "lat": -33.70726005,
   "lon": -70.70165517,
   "institucion": "INIA",
   "estado": "en línea",
   "vigencia": "hoy",
   "t_min": 3.0,
   "t_max": 5.5,
   "hr": 89.4,
   "lluvia_hoy": 0.1,
   "lluvia_ayer": 13.7,
   "viento": 0.4,
   "viento_max": 5.9,
   "dir_viento": 64.0
  },
  "inia:100": {
   "id": "100",
   "nombre": "San Antonio de Naltahua",
   "comuna": "Isla de Maipo",
   "region": "Metropolitana",
   "lat": -33.732181,
   "lon": -71.039443,
   "institucion": "INIA",
   "estado": "en línea",
   "vigencia": "hoy",
   "t_min": 3.4,
   "t_max": 7.1,
   "hr": 100.0,
   "lluvia_hoy": 0.0,
   "lluvia_ayer": 16.0,
   "viento": 0.0,
   "viento_max": 0.0,
   "dir_viento": 0.0
  },
  "inia:321": {
   "id": "321",
   "nombre": "Valdivia de Paine",
   "comuna": "Buin",
   "region": "Metropolitana",
   "lat": -33.7986592,
   "lon": -70.8413394,
   "institucion": "INIA",
   "estado": "en línea",
   "vigencia": "hoy",
   "t_min": 1.9,
   "t_max": 5.9,
   "hr": 99.2,
   "lluvia_hoy": 0.1,
   "lluvia_ayer": 16.5,
   "viento": 0.0,
   "viento_max": 1.0,
   "dir_viento": 2.0
  },
  "inia:210": {
   "id": "210",
   "nombre": "El Asiento",
   "comuna": "Alhué",
   "region": "Metropolitana",
   "lat": -34.029282,
   "lon": -70.995098,
   "institucion": "INIA",
   "estado": "en línea",
   "vigencia": "hoy",
   "t_min": 5.0,
   "t_max": 8.3,
   "hr": 84.1,
   "lluvia_hoy": 0.0,
   "lluvia_ayer": 16.4,
   "viento": 1.4,
   "viento_max": 10.4,
   "dir_viento": 112.0
  },
  "inia:303": {
   "id": "303",
   "nombre": "Rayentué",
   "comuna": "Rengo",
   "region": "O'Higgins",
   "lat": -34.321704,
   "lon": -70.833901,
   "institucion": "INIA",
   "estado": "en línea",
   "vigencia": "hoy",
   "t_min": 7.3,
   "t_max": 10.4,
   "hr": 63.1,
   "lluvia_hoy": 0.0,
   "lluvia_ayer": 2.7,
   "viento": 2.6,
   "viento_max": 10.2,
   "dir_viento": 186.0
  },
  "inia:163": {
   "id": "163",
   "nombre": "El Arenal",
   "comuna": "Quinta de Tilcoco",
   "region": "O'Higgins",
   "lat": -34.35575,
   "lon": -70.991278,
   "institucion": "INIA",
   "estado": "en línea",
   "vigencia": "hoy",
   "t_min": 7.8,
   "t_max": 11.8,
   "hr": 69.2,
   "lluvia_hoy": 0.0,
   "lluvia_ayer": 14.4,
   "viento": 1.1,
   "viento_max": 9.4,
   "dir_viento": 164.0
  },
  "inia:334": {
   "id": "334",
   "nombre": "Calleuque",
   "comuna": "Peralillo",
   "region": "O'Higgins",
   "lat": -34.3903,
   "lon": -71.444431,
   "institucion": "VDCH",
   "estado": "en línea",
   "vigencia": "hoy",
   "t_min": 6.9,
   "t_max": 9.6,
   "hr": 92.4,
   "lluvia_hoy": 0.1,
   "lluvia_ayer": 48.8,
   "viento": 0.2,
   "viento_max": 4.8,
   "dir_viento": 75.0
  },
  "inia:228": {
   "id": "228",
   "nombre": "Liceo Jean Buchanan",
   "comuna": "Peumo",
   "region": "O'Higgins",
   "lat": -34.3972892,
   "lon": -71.1646719,
   "institucion": "INIA",
   "estado": "en línea",
   "vigencia": "hoy",
   "t_min": 6.7,
   "t_max": 9.0,
   "hr": 86.7,
   "lluvia_hoy": 0.0,
   "lluvia_ayer": 26.7,
   "viento": 1.8,
   "viento_max": 7.2,
   "dir_viento": 172.0
  },
  "inia:52": {
   "id": "52",
   "nombre": "El Tambo",
   "comuna": "San Vicente",
   "region": "O'Higgins",
   "lat": -34.470992321899,
   "lon": -70.986951436879,
   "institucion": "INIA",
   "estado": "en línea",
   "vigencia": "hoy",
   "t_min": 8.5,
   "t_max": 13.7,
   "hr": 67.5,
   "lluvia_hoy": 0.0,
   "lluvia_ayer": 16.6,
   "viento": 4.5,
   "viento_max": 16.4,
   "dir_viento": 157.0
  },
  "inia:329": {
   "id": "329",
   "nombre": "Los Lingues",
   "comuna": "San Fernando",
   "region": "O'Higgins",
   "lat": -34.502129,
   "lon": -70.894723,
   "institucion": "VDCH",
   "estado": "en línea",
   "vigencia": "hoy",
   "t_min": 9.3,
   "t_max": 14.3,
   "hr": 55.2,
   "lluvia_hoy": 0.0,
   "lluvia_ayer": 10.7,
   "viento": 5.2,
   "viento_max": 19.9,
   "dir_viento": 266.0
  },
  "ext:155": {
   "id": "155",
   "nombre": "Nilahue - La Quebrada",
   "comuna": "Pumanque",
   "region": "O'Higgins",
   "lat": -34.66083,
   "lon": -71.73528,
   "institucion": "DMC",
   "estado": "en línea",
   "vigencia": "hoy",
   "t_min": 11.7,
   "t_max": 12.9,
   "hr": 76.0,
   "lluvia_hoy": 0.1,
   "lluvia_ayer": 0.2,
   "viento": 8.3,
   "viento_max": 14.4,
   "dir_viento": 21.0
  },
  "inia:317": {
   "id": "317",
   "nombre": "Peor es Nada",
   "comuna": "Chimbarongo",
   "region": "O'Higgins",
   "lat": -34.783248,
   "lon": -71.043411,
   "institucion": "INIA",
   "estado": "en línea",
   "vigencia": "hoy",
   "t_min": 7.9,
   "t_max": 10.3,
   "hr": 72.6,
   "lluvia_hoy": 0.0,
   "lluvia_ayer": 25.3,
   "viento": 2.6,
   "viento_max": 12.1,
   "dir_viento": 38.0
  },
  "ext:1031": {
   "id": "1031",
   "nombre": "Teno",
   "comuna": "Teno",
   "region": "Maule",
   "lat": -34.862039,
   "lon": -71.091697,
   "institucion": "ARAUCO",
   "estado": "en línea",
   "vigencia": "hoy",
   "t_min": 8.8,
   "t_max": 10.0,
   "hr": 85.2,
   "lluvia_hoy": 0.0,
   "lluvia_ayer": 26.6,
   "viento": 4.0,
   "viento_max": 10.1,
   "dir_viento": 195.0
  },
  "ext:983": {
   "id": "983",
   "nombre": "Hualañé",
   "comuna": "Hualañé",
   "region": "Maule",
   "lat": -34.983367,
   "lon": -71.781691,
   "institucion": "ARAUCO",
   "estado": "en línea",
   "vigencia": "hoy",
   "t_min": 13.0,
   "t_max": 14.0,
   "hr": 80.4,
   "lluvia_hoy": 0.0,
   "lluvia_ayer": 26.5,
   "viento": 3.3,
   "viento_max": 19.1,
   "dir_viento": 96.0
  },
  "ext:156": {
   "id": "156",
   "nombre": "Panguilemo",
   "comuna": "Talca",
   "region": "Maule",
   "lat": -35.37778,
   "lon": -71.60111,
   "institucion": "DMC",
   "estado": "en línea",
   "vigencia": "hoy",
   "t_min": 12.4,
   "t_max": 13.4,
   "hr": 65.2,
   "lluvia_hoy": 0.3,
   "lluvia_ayer": 2.6,
   "viento": 16.5,
   "viento_max": 33.8,
   "dir_viento": 128.0
  },
  "ext:992": {
   "id": "992",
   "nombre": "El Auquil",
   "comuna": "Pelarco",
   "region": "Maule",
   "lat": -35.391303,
   "lon": -71.29552,
   "institucion": "ARAUCO",
   "estado": "en línea",
   "vigencia": "hoy",
   "t_min": 9.0,
   "t_max": 11.9,
   "hr": 82.6,
   "lluvia_hoy": 0.0,
   "lluvia_ayer": 36.4,
   "viento": 4.7,
   "viento_max": 14.0,
   "dir_viento": 68.0
  },
  "ext:982": {
   "id": "982",
   "nombre": "Talca",
   "comuna": "Talca",
   "region": "Maule",
   "lat": -35.414716,
   "lon": -71.611857,
   "institucion": "ARAUCO",
   "estado": "en línea",
   "vigencia": "hoy",
   "t_min": 12.0,
   "t_max": 12.4,
   "hr": 75.6,
   "lluvia_hoy": 0.0,
   "lluvia_ayer": 12.7,
   "viento": 4.3,
   "viento_max": 13.0,
   "dir_viento": 78.0
  },
  "inia:333": {
   "id": "333",
   "nombre": "Pencahue",
   "comuna": "Pencahue",
   "region": "Maule",
   "lat": -35.44522,
   "lon": -71.83436,
   "institucion": "VDCH",
   "estado": "en línea",
   "vigencia": "hoy",
   "t_min": 12.2,
   "t_max": 13.8,
   "hr": 73.1,
   "lluvia_hoy": 0.0,
   "lluvia_ayer": 20.1,
   "viento": 2.9,
   "viento_max": 12.3,
   "dir_viento": 76.0
  },
  "inia:135": {
   "id": "135",
   "nombre": "San Clemente",
   "comuna": "San Clemente",
   "region": "Maule",
   "lat": -35.530653,
   "lon": -71.479505,
   "institucion": "INIA",
   "estado": "en línea",
   "vigencia": "hoy",
   "t_min": 10.4,
   "t_max": 11.9,
   "hr": 68.3,
   "lluvia_hoy": 0.1,
   "lluvia_ayer": 15.3,
   "viento": 1.3,
   "viento_max": 10.4,
   "dir_viento": 186.0
  },
  "ext:977": {
   "id": "977",
   "nombre": "Villa Alegre",
   "comuna": "Villa Alegre",
   "region": "Maule",
   "lat": -35.69611,
   "lon": -71.68222,
   "institucion": "FDF",
   "estado": "en línea",
   "vigencia": "hoy",
   "t_min": 11.4,
   "t_max": 13.0,
   "hr": 75.6,
   "lluvia_hoy": 0.0,
   "lluvia_ayer": 11.2,
   "viento": 2.3,
   "viento_max": 3.6,
   "dir_viento": 44.0
  },
  "inia:11": {
   "id": "11",
   "nombre": "Sauzal",
   "comuna": "Cauquenes",
   "region": "Maule",
   "lat": -35.719059,
   "lon": -72.117767,
   "institucion": "INIA",
   "estado": "en línea",
   "vigencia": "hoy",
   "t_min": 11.1,
   "t_max": 12.1,
   "hr": 81.8,
   "lluvia_hoy": 1.9,
   "lluvia_ayer": 25.9,
   "viento": 10.6,
   "viento_max": 35.3,
   "dir_viento": 188.0
  },
  "inia:136": {
   "id": "136",
   "nombre": "Santa Amada",
   "comuna": "Linares",
   "region": "Maule",
   "lat": -35.764696,
   "lon": -71.574996,
   "institucion": "INIA",
   "estado": "en línea",
   "vigencia": "hoy",
   "t_min": 11.6,
   "t_max": 12.8,
   "hr": 62.4,
   "lluvia_hoy": 0.1,
   "lluvia_ayer": 9.1,
   "viento": 10.9,
   "viento_max": 28.8,
   "dir_viento": 27.0
  },
  "ext:974": {
   "id": "974",
   "nombre": "Escuela de Artillería",
   "comuna": "Linares",
   "region": "Maule",
   "lat": -35.83694,
   "lon": -71.59278,
   "institucion": "MMA-DMC",
   "estado": "en línea",
   "vigencia": "hoy",
   "t_min": 12.7,
   "t_max": 13.5,
   "hr": 61.6,
   "lluvia_hoy": 0.0,
   "lluvia_ayer": 5.5,
   "viento": 15.2,
   "viento_max": 29.9,
   "dir_viento": 29.0
  },
  "inia:327": {
   "id": "327",
   "nombre": "Villa Seca",
   "comuna": "Retiro",
   "region": "Maule",
   "lat": -35.890453,
   "lon": -71.85712,
   "institucion": "VDCH",
   "estado": "en línea",
   "vigencia": "hoy",
   "t_min": 11.2,
   "t_max": 12.2,
   "hr": 74.2,
   "lluvia_hoy": 0.0,
   "lluvia_ayer": 13.2,
   "viento": 7.8,
   "viento_max": 26.6,
   "dir_viento": 22.0
  },
  "inia:46": {
   "id": "46",
   "nombre": "Cauquenes",
   "comuna": "Cauquenes",
   "region": "Maule",
   "lat": -35.95597397,
   "lon": -72.2899376,
   "institucion": "INIA",
   "estado": "en línea",
   "vigencia": "hoy",
   "t_min": 10.2,
   "t_max": 11.5,
   "hr": 88.8,
   "lluvia_hoy": 7.4,
   "lluvia_ayer": 27.5,
   "viento": 9.9,
   "viento_max": 25.6,
   "dir_viento": 45.0
  },
  "ext:960": {
   "id": "960",
   "nombre": "Parral",
   "comuna": "Parral",
   "region": "Maule",
   "lat": -36.197588,
   "lon": -71.814217,
   "institucion": "AGRICHILE",
   "estado": "en línea",
   "vigencia": "hoy",
   "t_min": 12.0,
   "t_max": 12.7,
   "hr": 73.8,
   "lluvia_hoy": 0.2,
   "lluvia_ayer": 13.6,
   "viento": 14.8,
   "viento_max": 36.0,
   "dir_viento": 23.0
  },
  "inia:139": {
   "id": "139",
   "nombre": "Centro Experimental Arroz",
   "comuna": "San Carlos",
   "region": "Ñuble",
   "lat": -36.409298,
   "lon": -72.006731,
   "institucion": "INIA",
   "estado": "en línea",
   "vigencia": "hoy",
   "t_min": 11.2,
   "t_max": 11.9,
   "hr": 74.5,
   "lluvia_hoy": 1.0,
   "lluvia_ayer": 18.9,
   "viento": 21.3,
   "viento_max": 43.4,
   "dir_viento": 27.0
  },
  "ext:157": {
   "id": "157",
   "nombre": "Aeródromo Gral. Bernardo O'Higgins",
   "comuna": "Chillán",
   "region": "Ñuble",
   "lat": -36.58722,
   "lon": -72.04,
   "institucion": "DMC",
   "estado": "en línea",
   "vigencia": "hoy",
   "t_min": 11.7,
   "t_max": 12.1,
   "hr": 75.2,
   "lluvia_hoy": 0.2,
   "lluvia_ayer": 12.6,
   "viento": 32.2,
   "viento_max": 49.0,
   "dir_viento": 21.0
  },
  "inia:351": {
   "id": "351",
   "nombre": "Quilamapu",
   "comuna": "Chillán",
   "region": "Ñuble",
   "lat": -36.595,
   "lon": -72.0897,
   "institucion": "INIA",
   "estado": "en línea",
   "vigencia": "hoy",
   "t_min": 11.0,
   "t_max": 12.4,
   "hr": 88.6,
   "lluvia_hoy": 0.7,
   "lluvia_ayer": 14.7,
   "viento": 11.9,
   "viento_max": 34.2,
   "dir_viento": 323.0
  },
  "inia:73": {
   "id": "73",
   "nombre": "Navidad",
   "comuna": "El Carmen",
   "region": "Ñuble",
   "lat": -36.916365,
   "lon": -71.834824,
   "institucion": "INIA",
   "estado": "en línea",
   "vigencia": "hoy",
   "t_min": 8.7,
   "t_max": 10.2,
   "hr": 82.8,
   "lluvia_hoy": 0.2,
   "lluvia_ayer": 0.8,
   "viento": 15.0,
   "viento_max": 41.5,
   "dir_viento": 44.0
  },
  "inia:49": {
   "id": "49",
   "nombre": "Yungay",
   "comuna": "Yungay",
   "region": "Ñuble",
   "lat": -37.141385,
   "lon": -72.011761,
   "institucion": "INIA",
   "estado": "en línea",
   "vigencia": "hoy",
   "t_min": 9.6,
   "t_max": 11.4,
   "hr": 84.2,
   "lluvia_hoy": 4.2,
   "lluvia_ayer": 25.0,
   "viento": 0.0,
   "viento_max": 0.0,
   "dir_viento": 0.0
  },
  "ext:229": {
   "id": "229",
   "nombre": "Aeródromo María Dolores",
   "comuna": "Los Ángeles",
   "region": "Biobío",
   "lat": -37.39694,
   "lon": -72.42389,
   "institucion": "DMC",
   "estado": "fuera de línea",
   "vigencia": "ayer",
   "t_min": 3.4,
   "t_max": 5.5,
   "hr": 100.0,
   "lluvia_hoy": 0.4,
   "lluvia_ayer": 0.4,
   "viento": 4.7,
   "viento_max": 13.0,
   "dir_viento": 176.0
  },
  "ext:162": {
   "id": "162",
   "nombre": "Liceo Agrícola El Huertón",
   "comuna": "Los Ángeles",
   "region": "Biobío",
   "lat": -37.45694,
   "lon": -72.275,
   "institucion": "DMC",
   "estado": "en línea",
   "vigencia": "hoy",
   "t_min": 10.7,
   "t_max": 11.6,
   "hr": 84.2,
   "lluvia_hoy": 1.3,
   "lluvia_ayer": 22.7,
   "viento": 19.6,
   "viento_max": 47.9,
   "dir_viento": 78.0
  },
  "inia:237": {
   "id": "237",
   "nombre": "El Vergel",
   "comuna": "Angol",
   "region": "La Araucanía",
   "lat": -37.8278098,
   "lon": -72.6596649,
   "institucion": "INIA",
   "estado": "en línea",
   "vigencia": "hoy",
   "t_min": 10.1,
   "t_max": 10.7,
   "hr": 96.2,
   "lluvia_hoy": 20.4,
   "lluvia_ayer": 21.1,
   "viento": 7.8,
   "viento_max": 30.4,
   "dir_viento": 17.0
  },
  "inia:235": {
   "id": "235",
   "nombre": "San Sebastián",
   "comuna": "Perquenco",
   "region": "La Araucanía",
   "lat": -38.435064,
   "lon": -72.399024,
   "institucion": "INIA",
   "estado": "en línea",
   "vigencia": "hoy",
   "t_min": 8.6,
   "t_max": 9.2,
   "hr": 91.1,
   "lluvia_hoy": 5.5,
   "lluvia_ayer": 4.0,
   "viento": 22.2,
   "viento_max": 40.7,
   "dir_viento": 124.0
  },
  "ext:1023": {
   "id": "1023",
   "nombre": "Ignao",
   "comuna": "Río Bueno",
   "region": "Los Ríos",
   "lat": -40.339544,
   "lon": -72.576714,
   "institucion": "COLUN",
   "estado": "en línea",
   "vigencia": "hoy",
   "t_min": 6.3,
   "t_max": 8.3,
   "hr": 84.0,
   "lluvia_hoy": 1.8,
   "lluvia_ayer": 0.3,
   "viento": 29.7,
   "viento_max": 67.7,
   "dir_viento": 256.0
  },
  "ext:76": {
   "id": "76",
   "nombre": "Adolfo Matthei",
   "comuna": "Osorno",
   "region": "Los Lagos",
   "lat": -40.59056,
   "lon": -73.11222,
   "institucion": "DMC",
   "estado": "en línea",
   "vigencia": "hoy",
   "t_min": 0.8,
   "t_max": 3.0,
   "hr": 96.3,
   "lluvia_hoy": 0.1,
   "lluvia_ayer": 0.2,
   "viento": 1.0,
   "viento_max": 5.0,
   "dir_viento": 183.0
  }
 },
 "name2id": {
  "Illapel": "ext:5",
  "Aeródromo La Florida": "ext:100",
  "Escuela Agrícola Ovalle": "ext:101",
  "La Cruz": "inia:51",
  "Liceo Agrícola Quillota": "ext:1029",
  "El Asiento (Alhué)": "inia:210",
  "Los Tilos (Buin)": "inia:6",
  "Valdivia de Paine (Buin)": "inia:321",
  "Aeródromo Curacaví": "ext:150",
  "San Antonio de Naltahua": "inia:100",
  "Chorrillos (Lampa)": "inia:314",
  "Chorombo Hacienda": "ext:141",
  "Talagante": "ext:118",
  "Peor es Nada (Chimbarongo)": "inia:317",
  "Liceo Jean Buchanan (Peumo)": "inia:228",
  "Nilahue - La Quebrada": "ext:155",
  "El Arenal (Q. Tilcoco)": "inia:163",
  "Rayentué (Rengo)": "inia:303",
  "El Tambo (San Vicente)": "inia:52",
  "Calleuque (Peralillo)": "inia:334",
  "Los Lingues (San Fernando)": "inia:329",
  "Cauquenes": "inia:46",
  "Sauzal (Cauquenes)": "inia:11",
  "Chanco": "inia:22",
  "Hualañé": "ext:983",
  "Escuela de Artillería (Linares)": "ext:974",
  "Santa Amada (Linares)": "inia:136",
  "Parral": "ext:960",
  "El Auquil (Pelarco)": "ext:992",
  "Pencahue": "inia:333",
  "Villa Seca (Retiro)": "inia:327",
  "San Clemente": "inia:135",
  "Panguilemo (Talca)": "ext:156",
  "Talca": "ext:982",
  "Teno": "ext:1031",
  "Villa Alegre": "ext:977",
  "Aeródromo Gral. B. O'Higgins (Chillán)": "ext:157",
  "Quilamapu (Chillán)": "inia:351",
  "Navidad (El Carmen)": "inia:73",
  "Centro Experimental Arroz (San Carlos)": "inia:139",
  "Yungay": "inia:49",
  "Aeródromo María Dolores (Los Ángeles)": "ext:229",
  "Liceo Agrícola El Huertón (Los Ángeles)": "ext:162",
  "El Vergel (Angol)": "inia:237",
  "San Sebastián (Perquenco)": "inia:235",
  "Ignao (Río Bueno)": "ext:1023",
  "Adolfo Matthei (Osorno)": "ext:76"
 },
 "anual": {
  "ext:5": 153.5,
  "ext:100": 0.0,
  "ext:101": 164.2,
  "inia:51": 0.0,
  "ext:1029": 253.4,
  "inia:210": 188.4,
  "inia:6": 155.1,
  "inia:321": 222.4,
  "ext:150": 67.1,
  "inia:100": 248.9,
  "inia:314": 125.4,
  "ext:141": 0.0,
  "ext:118": 153.8,
  "inia:317": 287.2,
  "inia:228": 252.1,
  "ext:155": 106.1,
  "inia:163": 175.7,
  "inia:303": 84.3,
  "inia:52": 216.6,
  "inia:334": 0.0,
  "inia:329": 207.9,
  "inia:46": 185.9,
  "inia:11": 185.5,
  "inia:22": 374.1,
  "ext:983": 322.8,
  "ext:974": 210.1,
  "inia:136": 353.7,
  "ext:960": 585.4,
  "ext:992": 312.6,
  "inia:333": 0.0,
  "inia:327": 389.3,
  "inia:135": 0.0,
  "ext:156": 0.0,
  "ext:982": 263.4,
  "ext:1031": 384.7,
  "ext:977": 368.2,
  "inia:351": 317.7,
  "inia:73": 671.7,
  "inia:139": 0.0,
  "inia:49": 658.4,
  "ext:229": 531.8,
  "ext:162": 410.2,
  "inia:237": 416.7,
  "inia:235": 560.1,
  "ext:1023": 750.8,
  "ext:76": 504.8
 }
}