{
 "timestamp": "2026-07-18T14:32",
 "estaciones": {
  "ext:100": {
   "id": "100",
   "nombre": "Aeródromo La Florida",
   "comuna": "La Serena",
   "region": "Coquimbo",
   "lat": -29.9175,
   "lon": -71.20111,
   "institucion": "DMC",
   "estado": "en línea",
   "vigencia": "hoy",
   "t_min": 14.4,
   "t_max": 15.8,
   "hr": 92.9,
   "lluvia_hoy": 6.4,
   "lluvia_ayer": 20.8,
   "viento": 21.0,
   "viento_max": 53.3,
   "dir_viento": 248.0
  },
  "ext:101": {
   "id": "101",
   "nombre": "Escuela Agrícola",
   "comuna": "Ovalle",
   "region": "Coquimbo",
   "lat": -30.58,
   "lon": -71.18667,
   "institucion": "DMC",
   "estado": "en línea",
   "vigencia": "hoy",
   "t_min": 12.3,
   "t_max": 15.1,
   "hr": 89.4,
   "lluvia_hoy": 11.0,
   "lluvia_ayer": 44.7,
   "viento": 11.4,
   "viento_max": 34.2,
   "dir_viento": 211.0
  },
  "ext:5": {
   "id": "5",
   "nombre": "Illapel",
   "comuna": "Illapel",
   "region": "Coquimbo",
   "lat": -31.64814,
   "lon": -71.19695,
   "institucion": "CEAZA",
   "estado": "en línea",
   "vigencia": "hoy",
   "t_min": 9.8,
   "t_max": 10.4,
   "hr": 97.8,
   "lluvia_hoy": 29.0,
   "lluvia_ayer": 76.3,
   "viento": 0.0,
   "viento_max": 9.9,
   "dir_viento": 172.0
  },
  "inia:51": {
   "id": "51",
   "nombre": "La Cruz",
   "comuna": "La Cruz",
   "region": "Valparaíso",
   "lat": -32.822,
   "lon": -71.2304,
   "institucion": "INIA",
   "estado": "en línea",
   "vigencia": "hoy",
   "t_min": 9.4,
   "t_max": 11.1,
   "hr": 96.2,
   "lluvia_hoy": 10.9,
   "lluvia_ayer": 182.7,
   "viento": 0.1,
   "viento_max": 5.9,
   "dir_viento": 83.0
  },
  "ext:1029": {
   "id": "1029",
   "nombre": "Liceo Agrícola Quillota",
   "comuna": "Quillota",
   "region": "Valparaíso",
   "lat": -32.90722,
   "lon": -71.27139,
   "institucion": "DMC",
   "estado": "en línea",
   "vigencia": "hoy",
   "t_min": 11.2,
   "t_max": 11.6,
   "hr": 89.0,
   "lluvia_hoy": 10.1,
   "lluvia_ayer": 153.8,
   "viento": 4.6,
   "viento_max": 10.4,
   "dir_viento": 92.0
  },
  "inia:314": {
   "id": "314",
   "nombre": "Chorrillos",
   "comuna": "Lampa",
   "region": "Metropolitana",
   "lat": -33.34368,
   "lon": -70.8185,
   "institucion": "INIA",
   "estado": "fuera de línea",
   "vigencia": "ayer",
   "t_min": 8.2,
   "t_max": 10.1,
   "hr": 90.2,
   "lluvia_hoy": 30.9,
   "lluvia_ayer": 30.9,
   "viento": 6.1,
   "viento_max": 23.9,
   "dir_viento": 129.0
  },
  "ext:150": {
   "id": "150",
   "nombre": "Aeródromo Curacaví",
   "comuna": "Curacaví",
   "region": "Metropolitana",
   "lat": -33.41111,
   "lon": -71.16778,
   "institucion": "DMC",
   "estado": "fuera de línea",
   "vigencia": "ayer",
   "t_min": 10.2,
   "t_max": 15.5,
   "hr": 89.0,
   "lluvia_hoy": 8.0,
   "lluvia_ayer": 8.0,
   "viento": 8.0,
   "viento_max": 47.2,
   "dir_viento": 146.0
  },
  "ext:141": {
   "id": "141",
   "nombre": "Chorombo Hacienda",
   "comuna": "María Pinto",
   "region": "Metropolitana",
   "lat": -33.52944,
   "lon": -71.22917,
   "institucion": "DMC",
   "estado": "en línea",
   "vigencia": "hoy",
   "t_min": 10.3,
   "t_max": 10.6,
   "hr": 99.5,
   "lluvia_hoy": null,
   "lluvia_ayer": null,
   "viento": 3.7,
   "viento_max": 11.5,
   "dir_viento": 178.0
  },
  "ext:118": {
   "id": "118",
   "nombre": "Talagante",
   "comuna": "Talagante",
   "region": "Metropolitana",
   "lat": -33.67028,
   "lon": -70.84944,
   "institucion": "DMC",
   "estado": "en línea",
   "vigencia": "hoy",
   "t_min": 8.5,
   "t_max": 9.1,
   "hr": 100.0,
   "lluvia_hoy": 6.7,
   "lluvia_ayer": 86.2,
   "viento": 5.6,
   "viento_max": 18.0,
   "dir_viento": 76.0
  },
  "inia:6": {
   "id": "6",
   "nombre": "Los Tilos",
   "comuna": "Buin",
   "region": "Metropolitana",
   "lat": -33.70726005,
   "lon": -70.70165517,
   "institucion": "INIA",
   "estado": "en línea",
   "vigencia": "hoy",
   "t_min": 7.8,
   "t_max": 9.8,
   "hr": 87.6,
   "lluvia_hoy": 7.2,
   "lluvia_ayer": 100.9,
   "viento": 3.9,
   "viento_max": 21.8,
   "dir_viento": 129.0
  },
  "inia:100": {
   "id": "100",
   "nombre": "San Antonio de Naltahua",
   "comuna": "Isla de Maipo",
   "region": "Metropolitana",
   "lat": -33.732181,
   "lon": -71.039443,
   "institucion": "INIA",
   "estado": "en línea",
   "vigencia": "hoy",
   "t_min": 9.7,
   "t_max": 10.3,
   "hr": 90.0,
   "lluvia_hoy": 15.4,
   "lluvia_ayer": 108.3,
   "viento": 1.6,
   "viento_max": 11.2,
   "dir_viento": 104.0
  },
  "inia:321": {
   "id": "321",
   "nombre": "Valdivia de Paine",
   "comuna": "Buin",
   "region": "Metropolitana",
   "lat": -33.7986592,
   "lon": -70.8413394,
   "institucion": "INIA",
   "estado": "fuera de línea",
   "vigencia": "ayer",
   "t_min": 9.4,
   "t_max": 9.5,
   "hr": 98.9,
   "lluvia_hoy": 4.0,
   "lluvia_ayer": 4.0,
   "viento": 0.3,
   "viento_max": 12.6,
   "dir_viento": 65.0
  },
  "inia:210": {
   "id": "210",
   "nombre": "El Asiento",
   "comuna": "Alhué",
   "region": "Metropolitana",
   "lat": -34.029282,
   "lon": -70.995098,
   "institucion": "INIA",
   "estado": "en línea",
   "vigencia": "hoy",
   "t_min": 8.2,
   "t_max": 10.4,
   "hr": 88.4,
   "lluvia_hoy": 6.0,
   "lluvia_ayer": 75.8,
   "viento": 1.8,
   "viento_max": 17.7,
   "dir_viento": 100.0
  },
  "inia:303": {
   "id": "303",
   "nombre": "Rayentué",
   "comuna": "Rengo",
   "region": "O'Higgins",
   "lat": -34.321704,
   "lon": -70.833901,
   "institucion": "INIA",
   "estado": "en línea",
   "vigencia": "hoy",
   "t_min": 8.9,
   "t_max": 11.0,
   "hr": 81.7,
   "lluvia_hoy": 0.7,
   "lluvia_ayer": 47.5,
   "viento": 5.0,
   "viento_max": 23.1,
   "dir_viento": 42.0
  },
  "inia:163": {
   "id": "163",
   "nombre": "El Arenal",
   "comuna": "Quinta de Tilcoco",
   "region": "O'Higgins",
   "lat": -34.35575,
   "lon": -70.991278,
   "institucion": "INIA",
   "estado": "en línea",
   "vigencia": "hoy",
   "t_min": 10.0,
   "t_max": 12.1,
   "hr": 77.2,
   "lluvia_hoy": 0.4,
   "lluvia_ayer": 54.0,
   "viento": 2.8,
   "viento_max": 13.4,
   "dir_viento": 90.0
  },
  "inia:334": {
   "id": "334",
   "nombre": "Calleuque",
   "comuna": "Peralillo",
   "region": "O'Higgins",
   "lat": -34.3903,
   "lon": -71.444431,
   "institucion": "VDCH",
   "estado": "fuera de línea",
   "vigencia": "ayer",
   "t_min": 11.1,
   "t_max": 11.2,
   "hr": 100.0,
   "lluvia_hoy": 0.6,
   "lluvia_ayer": 0.6,
   "viento": 0.2,
   "viento_max": 5.0,
   "dir_viento": 156.0
  },
  "inia:228": {
   "id": "228",
   "nombre": "Liceo Jean Buchanan",
   "comuna": "Peumo",
   "region": "O'Higgins",
   "lat": -34.3972892,
   "lon": -71.1646719,
   "institucion": "INIA",
   "estado": "en línea",
   "vigencia": "hoy",
   "t_min": 9.2,
   "t_max": 10.5,
   "hr": 93.1,
   "lluvia_hoy": 0.1,
   "lluvia_ayer": 58.9,
   "viento": 0.7,
   "viento_max": 9.6,
   "dir_viento": 130.0
  },
  "inia:52": {
   "id": "52",
   "nombre": "El Tambo",
   "comuna": "San Vicente",
   "region": "O'Higgins",
   "lat": -34.470992321899,
   "lon": -70.986951436879,
   "institucion": "INIA",
   "estado": "en línea",
   "vigencia": "hoy",
   "t_min": 10.6,
   "t_max": 12.5,
   "hr": 77.6,
   "lluvia_hoy": 2.9,
   "lluvia_ayer": 64.3,
   "viento": 7.6,
   "viento_max": 23.9,
   "dir_viento": 81.0
  },
  "inia:329": {
   "id": "329",
   "nombre": "Los Lingues",
   "comuna": "San Fernando",
   "region": "O'Higgins",
   "lat": -34.502129,
   "lon": -70.894723,
   "institucion": "VDCH",
   "estado": "en línea",
   "vigencia": "hoy",
   "t_min": 10.1,
   "t_max": 13.2,
   "hr": 68.9,
   "lluvia_hoy": 1.4,
   "lluvia_ayer": 56.1,
   "viento": 9.9,
   "viento_max": 28.8,
   "dir_viento": 118.0
  },
  "ext:155": {
   "id": "155",
   "nombre": "Nilahue - La Quebrada",
   "comuna": "Pumanque",
   "region": "O'Higgins",
   "lat": -34.66083,
   "lon": -71.73528,
   "institucion": "DMC",
   "estado": "fuera de línea",
   "vigencia": "ayer",
   "t_min": 11.2,
   "t_max": 13.5,
   "hr": 96.4,
   "lluvia_hoy": 0.3,
   "lluvia_ayer": 0.3,
   "viento": 8.6,
   "viento_max": 25.9,
   "dir_viento": 41.0
  },
  "inia:317": {
   "id": "317",
   "nombre": "Peor es Nada",
   "comuna": "Chimbarongo",
   "region": "O'Higgins",
   "lat": -34.783248,
   "lon": -71.043411,
   "institucion": "INIA",
   "estado": "en línea",
   "vigencia": "hoy",
   "t_min": 9.7,
   "t_max": 10.7,
   "hr": 82.5,
   "lluvia_hoy": 1.7,
   "lluvia_ayer": 53.5,
   "viento": 7.7,
   "viento_max": 26.9,
   "dir_viento": 80.0
  },
  "ext:156": {
   "id": "156",
   "nombre": "Panguilemo",
   "comuna": "Talca",
   "region": "Maule",
   "lat": -35.37778,
   "lon": -71.60111,
   "institucion": "DMC",
   "estado": "en línea",
   "vigencia": "hoy",
   "t_min": 9.5,
   "t_max": 12.4,
   "hr": 94.5,
   "lluvia_hoy": 2.8,
   "lluvia_ayer": 40.6,
   "viento": 12.6,
   "viento_max": 61.2,
   "dir_viento": 153.0
  },
  "inia:333": {
   "id": "333",
   "nombre": "Pencahue",
   "comuna": "Pencahue",
   "region": "Maule",
   "lat": -35.44522,
   "lon": -71.83436,
   "institucion": "VDCH",
   "estado": "fuera de línea",
   "vigencia": "ayer",
   "t_min": 10.9,
   "t_max": 12.0,
   "hr": 95.5,
   "lluvia_hoy": 20.5,
   "lluvia_ayer": 20.5,
   "viento": 2.2,
   "viento_max": 18.8,
   "dir_viento": 91.0
  },
  "inia:135": {
   "id": "135",
   "nombre": "San Clemente",
   "comuna": "San Clemente",
   "region": "Maule",
   "lat": -35.530653,
   "lon": -71.479505,
   "institucion": "INIA",
   "estado": "en línea",
   "vigencia": "hoy",
   "t_min": 7.0,
   "t_max": 10.4,
   "hr": 94.7,
   "lluvia_hoy": 14.1,
   "lluvia_ayer": 47.2,
   "viento": 0.8,
   "viento_max": 19.4,
   "dir_viento": 98.0
  },
  "inia:11": {
   "id": "11",
   "nombre": "Sauzal",
   "comuna": "Cauquenes",
   "region": "Maule",
   "lat": -35.719059,
   "lon": -72.117767,
   "institucion": "INIA",
   "estado": "en línea",
   "vigencia": "hoy",
   "t_min": 8.4,
   "t_max": 11.1,
   "hr": 92.0,
   "lluvia_hoy": 0.2,
   "lluvia_ayer": 1.8,
   "viento": 6.4,
   "viento_max": 29.1,
   "dir_viento": 154.0
  },
  "inia:136": {
   "id": "136",
   "nombre": "Santa Amada",
   "comuna": "Linares",
   "region": "Maule",
   "lat": -35.764696,
   "lon": -71.574996,
   "institucion": "INIA",
   "estado": "en línea",
   "vigencia": "hoy",
   "t_min": 8.2,
   "t_max": 10.1,
   "hr": 99.6,
   "lluvia_hoy": 6.8,
   "lluvia_ayer": 27.9,
   "viento": 9.0,
   "viento_max": 28.0,
   "dir_viento": 65.0
  },
  "ext:974": {
   "id": "974",
   "nombre": "Escuela de Artillería",
   "comuna": "Linares",
   "region": "Maule",
   "lat": -35.83694,
   "lon": -71.59278,
   "institucion": "MMA-DMC",
   "estado": "en línea",
   "vigencia": "hoy",
   "t_min": 9.4,
   "t_max": 11.9,
   "hr": 90.9,
   "lluvia_hoy": 6.8,
   "lluvia_ayer": 21.5,
   "viento": 10.9,
   "viento_max": 25.6,
   "dir_viento": 29.0
  },
  "inia:327": {
   "id": "327",
   "nombre": "Villa Seca",
   "comuna": "Retiro",
   "region": "Maule",
   "lat": -35.890453,
   "lon": -71.85712,
   "institucion": "VDCH",
   "estado": "en línea",
   "vigencia": "hoy",
   "t_min": 9.0,
   "t_max": 11.7,
   "hr": 88.9,
   "lluvia_hoy": 3.3,
   "lluvia_ayer": 67.4,
   "viento": 7.4,
   "viento_max": 26.6,
   "dir_viento": 65.0
  },
  "inia:46": {
   "id": "46",
   "nombre": "Cauquenes",
   "comuna": "Cauquenes",
   "region": "Maule",
   "lat": -35.95597397,
   "lon": -72.2899376,
   "institucion": "INIA",
   "estado": "en línea",
   "vigencia": "hoy",
   "t_min": 8.3,
   "t_max": 10.4,
   "hr": 92.5,
   "lluvia_hoy": 0.7,
   "lluvia_ayer": 1.1,
   "viento": 3.4,
   "viento_max": 20.7,
   "dir_viento": 36.0
  },
  "ext:960": {
   "id": "960",
   "nombre": "Parral",
   "comuna": "Parral",
   "region": "Maule",
   "lat": -36.197588,
   "lon": -71.814217,
   "institucion": "AGRICHILE",
   "estado": "en línea",
   "vigencia": "hoy",
   "t_min": 8.6,
   "t_max": 11.5,
   "hr": 95.8,
   "lluvia_hoy": 33.6,
   "lluvia_ayer": 49.4,
   "viento": 8.9,
   "viento_max": 36.0,
   "dir_viento": 78.0
  },
  "inia:139": {
   "id": "139",
   "nombre": "Centro Experimental Arroz",
   "comuna": "San Carlos",
   "region": "Ñuble",
   "lat": -36.409298,
   "lon": -72.006731,
   "institucion": "INIA",
   "estado": "en línea",
   "vigencia": "hoy",
   "t_min": 9.1,
   "t_max": 11.1,
   "hr": 93.0,
   "lluvia_hoy": 3.6,
   "lluvia_ayer": 49.8,
   "viento": 16.8,
   "viento_max": 39.6,
   "dir_viento": 29.0
  },
  "ext:157": {
   "id": "157",
   "nombre": "Aeródromo Gral. Bernardo O'Higgins",
   "comuna": "Chillán",
   "region": "Ñuble",
   "lat": -36.58722,
   "lon": -72.04,
   "institucion": "DMC",
   "estado": "en línea",
   "vigencia": "hoy",
   "t_min": 9.6,
   "t_max": 11.0,
   "hr": 92.8,
   "lluvia_hoy": 1.6,
   "lluvia_ayer": 34.8,
   "viento": 23.2,
   "viento_max": 39.6,
   "dir_viento": 63.0
  },
  "inia:351": {
   "id": "351",
   "nombre": "Quilamapu",
   "comuna": "Chillán",
   "region": "Ñuble",
   "lat": -36.595,
   "lon": -72.0897,
   "institucion": "INIA",
   "estado": "en línea",
   "vigencia": "hoy",
   "t_min": 9.5,
   "t_max": 11.2,
   "hr": 93.4,
   "lluvia_hoy": 3.9,
   "lluvia_ayer": 29.6,
   "viento": 7.3,
   "viento_max": 24.5,
   "dir_viento": 320.0
  },
  "inia:73": {
   "id": "73",
   "nombre": "Navidad",
   "comuna": "El Carmen",
   "region": "Ñuble",
   "lat": -36.916365,
   "lon": -71.834824,
   "institucion": "INIA",
   "estado": "en línea",
   "vigencia": "hoy",
   "t_min": 6.8,
   "t_max": 8.9,
   "hr": 91.6,
   "lluvia_hoy": 0.4,
   "lluvia_ayer": 1.1,
   "viento": 10.6,
   "viento_max": 39.1,
   "dir_viento": 60.0
  },
  "inia:49": {
   "id": "49",
   "nombre": "Yungay",
   "comuna": "Yungay",
   "region": "Ñuble",
   "lat": -37.141385,
   "lon": -72.011761,
   "institucion": "INIA",
   "estado": "fuera de línea",
   "vigencia": "ayer",
   "t_min": 8.8,
   "t_max": 11.0,
   "hr": 93.2,
   "lluvia_hoy": 7.8,
   "lluvia_ayer": 7.8,
   "viento": 0.0,
   "viento_max": 0.0,
   "dir_viento": 0.0
  },
  "ext:229": {
   "id": "229",
   "nombre": "Aeródromo María Dolores",
   "comuna": "Los Ángeles",
   "region": "Biobío",
   "lat": -37.39694,
   "lon": -72.42389,
   "institucion": "DMC",
   "estado": "fuera de línea",
   "vigencia": "ayer",
   "t_min": 9.2,
   "t_max": 10.1,
   "hr": 100.0,
   "lluvia_hoy": 0.6,
   "lluvia_ayer": 0.6,
   "viento": 5.1,
   "viento_max": 14.8,
   "dir_viento": 157.0
  },
  "ext:162": {
   "id": "162",
   "nombre": "Liceo Agrícola El Huertón",
   "comuna": "Los Ángeles",
   "region": "Biobío",
   "lat": -37.45694,
   "lon": -72.275,
   "institucion": "DMC",
   "estado": "en línea",
   "vigencia": "hoy",
   "t_min": 8.4,
   "t_max": 8.5,
   "hr": 100.0,
   "lluvia_hoy": 10.4,
   "lluvia_ayer": 21.4,
   "viento": 0.0,
   "viento_max": 5.4,
   "dir_viento": 113.0
  },
  "inia:237": {
   "id": "237",
   "nombre": "El Vergel",
   "comuna": "Angol",
   "region": "La Araucanía",
   "lat": -37.8278098,
   "lon": -72.6596649,
   "institucion": "INIA",
   "estado": "en línea",
   "vigencia": "hoy",
   "t_min": 8.3,
   "t_max": 9.0,
   "hr": 99.6,
   "lluvia_hoy": 6.8,
   "lluvia_ayer": 4.9,
   "viento": 0.0,
   "viento_max": 5.3,
   "dir_viento": 12.0
  },
  "inia:235": {
   "id": "235",
   "nombre": "San Sebastián",
   "comuna": "Perquenco",
   "region": "La Araucanía",
   "lat": -38.435064,
   "lon": -72.399024,
   "institucion": "INIA",
   "estado": "en línea",
   "vigencia": "hoy",
   "t_min": 6.5,
   "t_max": 7.5,
   "hr": 97.0,
   "lluvia_hoy": 6.9,
   "lluvia_ayer": 0.6,
   "viento": 0.4,
   "viento_max": 8.6,
   "dir_viento": 63.0
  },
  "ext:1023": {
   "id": "1023",
   "nombre": "Ignao",
   "comuna": "Río Bueno",
   "region": "Los Ríos",
   "lat": -40.339544,
   "lon": -72.576714,
   "institucion": "COLUN",
   "estado": "fuera de línea",
   "vigencia": "ayer",
   "t_min": 7.2,
   "t_max": 11.1,
   "hr": 86.3,
   "lluvia_hoy": 0.0,
   "lluvia_ayer": 0.0,
   "viento": 18.1,
   "viento_max": 46.8,
   "dir_viento": 257.0
  },
  "ext:76": {
   "id": "76",
   "nombre": "Adolfo Matthei",
   "comuna": "Osorno",
   "region": "Los Lagos",
   "lat": -40.59056,
   "lon": -73.11222,
   "institucion": "DMC",
   "estado": "en línea",
   "vigencia": "hoy",
   "t_min": 2.9,
   "t_max": 7.4,
   "hr": 86.6,
   "lluvia_hoy": 0.0,
   "lluvia_ayer": 0.5,
   "viento": 5.8,
   "viento_max": 17.3,
   "dir_viento": 191.0
  }
 },
 "name2id": {
  "Illapel": "ext:5",
  "Aeródromo La Florida": "ext:100",
  "Escuela Agrícola Ovalle": "ext:101",
  "La Cruz": "inia:51",
  "Liceo Agrícola Quillota": "ext:1029",
  "El Asiento (Alhué)": "inia:210",
  "Los Tilos (Buin)": "inia:6",
  "Valdivia de Paine (Buin)": "inia:321",
  "Aeródromo Curacaví": "ext:150",
  "San Antonio de Naltahua": "inia:100",
  "Chorrillos (Lampa)": "inia:314",
  "Chorombo Hacienda": "ext:141",
  "Talagante": "ext:118",
  "Peor es Nada (Chimbarongo)": "inia:317",
  "Liceo Jean Buchanan (Peumo)": "inia:228",
  "Nilahue - La Quebrada": "ext:155",
  "El Arenal (Q. Tilcoco)": "inia:163",
  "Rayentué (Rengo)": "inia:303",
  "El Tambo (San Vicente)": "inia:52",
  "Calleuque (Peralillo)": "inia:334",
  "Los Lingues (San Fernando)": "inia:329",
  "Cauquenes": "inia:46",
  "Sauzal (Cauquenes)": "inia:11",
  "Chanco": "inia:22",
  "Hualañé": "ext:983",
  "Escuela de Artillería (Linares)": "ext:974",
  "Santa Amada (Linares)": "inia:136",
  "Parral": "ext:960",
  "El Auquil (Pelarco)": "ext:992",
  "Pencahue": "inia:333",
  "Villa Seca (Retiro)": "inia:327",
  "San Clemente": "inia:135",
  "Panguilemo (Talca)": "ext:156",
  "Talca": "ext:982",
  "Teno": "ext:1031",
  "Villa Alegre": "ext:977",
  "Aeródromo Gral. B. O'Higgins (Chillán)": "ext:157",
  "Quilamapu (Chillán)": "inia:351",
  "Navidad (El Carmen)": "inia:73",
  "Centro Experimental Arroz (San Carlos)": "inia:139",
  "Yungay": "inia:49",
  "Aeródromo María Dolores (Los Ángeles)": "ext:229",
  "Liceo Agrícola El Huertón (Los Ángeles)": "ext:162",
  "El Vergel (Angol)": "inia:237",
  "San Sebastián (Perquenco)": "inia:235",
  "Ignao (Río Bueno)": "ext:1023",
  "Adolfo Matthei (Osorno)": "ext:76"
 },
 "anual": {
  "ext:5": 107.9,
  "ext:100": 35.2,
  "ext:101": 59.0,
  "inia:51": 255.9,
  "ext:1029": 210.1,
  "inia:210": 158.1,
  "inia:6": 126.4,
  "inia:321": 95.1,
  "ext:150": 40.5,
  "inia:100": 211.8,
  "inia:314": 67.2,
  "ext:141": 0.0,
  "ext:118": 129.2,
  "inia:317": 241.8,
  "inia:228": 198.1,
  "ext:155": 105.1,
  "inia:163": 146.5,
  "inia:303": 74.1,
  "inia:52": 181.4,
  "inia:334": 109.7,
  "inia:329": 177.0,
  "inia:46": 184.8,
  "inia:11": 185.2,
  "inia:22": 207.5,
  "ext:983": 136.0,
  "ext:974": 191.9,
  "inia:136": 328.4,
  "ext:960": 535.4,
  "ext:992": 203.0,
  "inia:333": 236.9,
  "inia:327": 369.7,
  "inia:135": 223.5,
  "ext:156": 314.5,
  "ext:982": 146.5,
  "ext:1031": 218.2,
  "ext:977": 231.4,
  "ext:157": 383.6,
  "inia:351": 306.5,
  "inia:73": 671.0,
  "inia:139": 440.8,
  "inia:49": 591.6,
  "ext:229": 531.8,
  "ext:162": 359.8,
  "inia:237": 404.9,
  "inia:235": 543.6,
  "ext:1023": 750.5,
  "ext:76": 504.8
 }
}